{
  "type": "FeatureCollection",
  "features": [
    {
      "type": "Feature",
      "geometry": {
        "type": "Point",
        "coordinates": [
          -70.9506042,
          42.1228595
        ]
      },
      "properties": {
        "Name": "Abington Housing Authority",
        "Family Housing (Ch.200)": "NULL",
        "Family Housing (Ch.705)": "2",
        "Elderly / Handicapped Housing (Ch.667)": "110",
        "Special Needs Housing (Ch.167/189)": "NULL",
        "Massachusetts Rental Voucher Program Housing": "NULL",
        "Alternative Housing Voucher Program Housing": "NULL",
        "address": "71 SHAW AVENUE",
        "town": "ABINGTON",
        "zip": "02351",
        "phone": "781-878-5219"
      }
    },
    {
      "type": "Feature",
      "geometry": {
        "type": "Point",
        "coordinates": [
          -71.43284,
          42.4850931
        ]
      },
      "properties": {
        "Name": "Acton Housing Authority",
        "Family Housing (Ch.200)": "NULL",
        "Family Housing (Ch.705)": "39",
        "Elderly / Handicapped Housing (Ch.667)": "91",
        "Special Needs Housing (Ch.167/189)": "12",
        "Massachusetts Rental Voucher Program Housing": "6",
        "Alternative Housing Voucher Program Housing": "20",
        "address": "68 WINDSOR AVE. BOX 681",
        "town": "ACTON",
        "zip": "01720",
        "phone": "978-263-5339"
      }
    },
    {
      "type": "Feature",
      "geometry": {
        "type": "Point",
        "coordinates": [
          -70.91713899999999,
          41.68339
        ]
      },
      "properties": {
        "Name": "Acushnet Housing Authority",
        "Family Housing (Ch.200)": "NULL",
        "Family Housing (Ch.705)": "NULL",
        "Elderly / Handicapped Housing (Ch.667)": "NULL",
        "Special Needs Housing (Ch.167/189)": "8",
        "Massachusetts Rental Voucher Program Housing": "NULL",
        "Alternative Housing Voucher Program Housing": "NULL",
        "address": "23 MAIN STREET",
        "town": "ACUSHNET",
        "zip": "02743",
        "phone": "508-998-3603"
      }
    },
    {
      "type": "Feature",
      "geometry": {
        "type": "Point",
        "coordinates": [
          -73.1196978,
          42.6243374
        ]
      },
      "properties": {
        "Name": "Adams Housing Authority",
        "Family Housing (Ch.200)": "NULL",
        "Family Housing (Ch.705)": "25",
        "Elderly / Handicapped Housing (Ch.667)": "64",
        "Special Needs Housing (Ch.167/189)": "8",
        "Massachusetts Rental Voucher Program Housing": "18",
        "Alternative Housing Voucher Program Housing": "NULL",
        "address": "4 COLUMBIA STREET",
        "town": "ADAMS",
        "zip": "01220",
        "phone": "413-743-5924"
      }
    },
    {
      "type": "Feature",
      "geometry": {
        "type": "Point",
        "coordinates": [
          -72.61945829999999,
          42.0617139
        ]
      },
      "properties": {
        "Name": "Agawam Housing Authority",
        "Family Housing (Ch.200)": "44",
        "Family Housing (Ch.705)": " 7",
        "Elderly / Handicapped Housing (Ch.667)": "191",
        "Special Needs Housing (Ch.167/189)": "NULL",
        "Massachusetts Rental Voucher Program Housing": "NULL",
        "Alternative Housing Voucher Program Housing": "NULL",
        "address": "66 MEADOWBROOK MANOR",
        "town": "AGAWAM",
        "zip": "01001",
        "phone": "413-786-1297"
      }
    },
    {
      "type": "Feature",
      "geometry": {
        "type": "Point",
        "coordinates": [
          -70.931455,
          42.853413
        ]
      },
      "properties": {
        "Name": "Amesbury Housing Authority",
        "Family Housing (Ch.200)": "27",
        "Family Housing (Ch.705)": " 23",
        "Elderly / Handicapped Housing (Ch.667)": "205",
        "Special Needs Housing (Ch.167/189)": "8",
        "Massachusetts Rental Voucher Program Housing": "NULL",
        "Alternative Housing Voucher Program Housing": "NULL",
        "address": "180 MAIN STREET",
        "town": "AMESBURY",
        "zip": "01913",
        "phone": "978-388-2022"
      }
    },
    {
      "type": "Feature",
      "geometry": {
        "type": "Point",
        "coordinates": [
          -72.517999,
          42.37747
        ]
      },
      "properties": {
        "Name": "Amherst Housing Authority",
        "Family Housing (Ch.200)": "NULL",
        "Family Housing (Ch.705)": "22",
        "Elderly / Handicapped Housing (Ch.667)": "116",
        "Special Needs Housing (Ch.167/189)": "24",
        "Massachusetts Rental Voucher Program Housing": "15",
        "Alternative Housing Voucher Program Housing": "NULL",
        "address": "33 KELLOGG AVENUE",
        "town": "AMHERST",
        "zip": "01002",
        "phone": "413-256-0206"
      }
    },
    {
      "type": "Feature",
      "geometry": {
        "type": "Point",
        "coordinates": [
          -71.1295549,
          42.6553214
        ]
      },
      "properties": {
        "Name": "Andover Housing Authority",
        "Family Housing (Ch.200)": "56",
        "Family Housing (Ch.705)": " NULL",
        "Elderly / Handicapped Housing (Ch.667)": "218",
        "Special Needs Housing (Ch.167/189)": "8",
        "Massachusetts Rental Voucher Program Housing": "4",
        "Alternative Housing Voucher Program Housing": "10",
        "address": "100 MORTON STREET",
        "town": "ANDOVER",
        "zip": "01810",
        "phone": "978-475-2365"
      }
    },
    {
      "type": "Feature",
      "geometry": {
        "type": "Point",
        "coordinates": [
          -71.130589,
          42.383449
        ]
      },
      "properties": {
        "Name": "Arlington Housing Authority",
        "Family Housing (Ch.200)": "176",
        "Family Housing (Ch.705)": "NULL",
        "Elderly / Handicapped Housing (Ch.667)": "520",
        "Special Needs Housing (Ch.167/189)": "13",
        "Massachusetts Rental Voucher Program Housing": "7",
        "Alternative Housing Voucher Program Housing": "NULL",
        "address": "4 WINSLOW STREET",
        "town": "ARLINGTON",
        "zip": "02174",
        "phone": "781-646-3400"
      }
    },
    {
      "type": "Feature",
      "geometry": {
        "type": "Point",
        "coordinates": [
          -71.4671115,
          42.2592933
        ]
      },
      "properties": {
        "Name": "Ashland Housing Authority",
        "Family Housing (Ch.200)": "NULL",
        "Family Housing (Ch.705)": "NULL",
        "Elderly / Handicapped Housing (Ch.667)": "40",
        "Special Needs Housing (Ch.167/189)": "NULL",
        "Massachusetts Rental Voucher Program Housing": "NULL",
        "Alternative Housing Voucher Program Housing": "NULL",
        "address": "59 PARK ROAD",
        "town": "ASHLAND",
        "zip": "01721",
        "phone": "508-881-2450"
      }
    },
    {
      "type": "Feature",
      "geometry": {
        "type": "Point",
        "coordinates": [
          -72.24067629999999,
          42.5919401
        ]
      },
      "properties": {
        "Name": "Athol Housing Authority",
        "Family Housing (Ch.200)": "NULL",
        "Family Housing (Ch.705)": "16",
        "Elderly / Handicapped Housing (Ch.667)": "78",
        "Special Needs Housing (Ch.167/189)": "NULL",
        "Massachusetts Rental Voucher Program Housing": "46",
        "Alternative Housing Voucher Program Housing": "NULL",
        "address": "21 Morton Meadows",
        "town": "ATHOL",
        "zip": "01331",
        "phone": "978-249-4848"
      }
    },
    {
      "type": "Feature",
      "geometry": {
        "type": "Point",
        "coordinates": [
          -71.3103419,
          41.93295639999999
        ]
      },
      "properties": {
        "Name": "Attleboro Housing Authority",
        "Family Housing (Ch.200)": "91",
        "Family Housing (Ch.705)": " 21",
        "Elderly / Handicapped Housing (Ch.667)": "319",
        "Special Needs Housing (Ch.167/189)": "20",
        "Massachusetts Rental Voucher Program Housing": "46",
        "Alternative Housing Voucher Program Housing": "NULL",
        "address": "37 CARLON STREET",
        "town": "ATTLEBORO",
        "zip": "02703",
        "phone": "508-222-0151"
      }
    },
    {
      "type": "Feature",
      "geometry": {
        "type": "Point",
        "coordinates": [
          -71.84619099999999,
          42.213875
        ]
      },
      "properties": {
        "Name": "Auburn Housing Authority",
        "Family Housing (Ch.200)": "NULL",
        "Family Housing (Ch.705)": "32",
        "Elderly / Handicapped Housing (Ch.667)": "90",
        "Special Needs Housing (Ch.167/189)": "8",
        "Massachusetts Rental Voucher Program Housing": "NULL",
        "Alternative Housing Voucher Program Housing": "NULL",
        "address": "200 OXFORD STREET",
        "town": "AUBURN",
        "zip": "01501",
        "phone": "508-832-3852"
      }
    },
    {
      "type": "Feature",
      "geometry": {
        "type": "Point",
        "coordinates": [
          -71.0312861,
          42.1310459
        ]
      },
      "properties": {
        "Name": "Avon Housing Authority",
        "Family Housing (Ch.200)": "NULL",
        "Family Housing (Ch.705)": "NULL",
        "Elderly / Handicapped Housing (Ch.667)": "70",
        "Special Needs Housing (Ch.167/189)": "NULL",
        "Massachusetts Rental Voucher Program Housing": "NULL",
        "Alternative Housing Voucher Program Housing": "NULL",
        "address": "ONE FELLOWSHIP CIRCLE",
        "town": "AVON",
        "zip": "02322",
        "phone": "508-588-1847"
      }
    },
    {
      "type": "Feature",
      "geometry": {
        "type": "Point",
        "coordinates": [
          -71.5820501,
          42.5556679
        ]
      },
      "properties": {
        "Name": "Ayer Housing Authority",
        "Family Housing (Ch.200)": "NULL",
        "Family Housing (Ch.705)": "13",
        "Elderly / Handicapped Housing (Ch.667)": "61",
        "Special Needs Housing (Ch.167/189)": "NULL",
        "Massachusetts Rental Voucher Program Housing": "8",
        "Alternative Housing Voucher Program Housing": "NULL",
        "address": "18 POND STREET",
        "town": "AYER",
        "zip": "01432",
        "phone": "978-772-2771"
      }
    },
    {
      "type": "Feature",
      "geometry": {
        "type": "Point",
        "coordinates": [
          -70.2799199,
          41.6517692
        ]
      },
      "properties": {
        "Name": "Barnstable Housing Authority",
        "Family Housing (Ch.200)": "NULL",
        "Family Housing (Ch.705)": "52",
        "Elderly / Handicapped Housing (Ch.667)": "153",
        "Special Needs Housing (Ch.167/189)": "52",
        "Massachusetts Rental Voucher Program Housing": "81",
        "Alternative Housing Voucher Program Housing": "15",
        "address": "146 SOUTH STREET",
        "town": "HYANNIS",
        "zip": "02601",
        "phone": "508-771-7222"
      }
    },
    {
      "type": "Feature",
      "geometry": {
        "type": "Point",
        "coordinates": [
          -72.10592799999999,
          42.4297985
        ]
      },
      "properties": {
        "Name": "Barre Housing Authority",
        "Family Housing (Ch.200)": "NULL",
        "Family Housing (Ch.705)": "10",
        "Elderly / Handicapped Housing (Ch.667)": "56",
        "Special Needs Housing (Ch.167/189)": "NULL",
        "Massachusetts Rental Voucher Program Housing": "NULL",
        "Alternative Housing Voucher Program Housing": "NULL",
        "address": "49 GRANDVIEW TER.",
        "town": "BARRE",
        "zip": "01005",
        "phone": "978-355-6643"
      }
    },
    {
      "type": "Feature",
      "geometry": {
        "type": "Point",
        "coordinates": [
          -71.2692476,
          42.486424
        ]
      },
      "properties": {
        "Name": "Bedford Housing Authority",
        "Family Housing (Ch.200)": "12",
        "Family Housing (Ch.705)": " NULL",
        "Elderly / Handicapped Housing (Ch.667)": "80",
        "Special Needs Housing (Ch.167/189)": "8",
        "Massachusetts Rental Voucher Program Housing": "19",
        "Alternative Housing Voucher Program Housing": "NULL",
        "address": "ASHBY PLACE",
        "town": "BEDFORD",
        "zip": "01730",
        "phone": "781-275-2428"
      }
    },
    {
      "type": "Feature",
      "geometry": {
        "type": "Point",
        "coordinates": [
          -72.39606599999999,
          42.275345
        ]
      },
      "properties": {
        "Name": "Belchertown Housing Authority",
        "Family Housing (Ch.200)": "NULL",
        "Family Housing (Ch.705)": "12",
        "Elderly / Handicapped Housing (Ch.667)": "48",
        "Special Needs Housing (Ch.167/189)": "14",
        "Massachusetts Rental Voucher Program Housing": "NULL",
        "Alternative Housing Voucher Program Housing": "NULL",
        "address": "41 EVERETT AVE",
        "town": "BELCHERTOWN",
        "zip": "01007",
        "phone": "413-323-4064"
      }
    },
    {
      "type": "Feature",
      "geometry": {
        "type": "Point",
        "coordinates": [
          -71.4831252,
          42.0249774
        ]
      },
      "properties": {
        "Name": "Bellingham Housing Authority",
        "Family Housing (Ch.200)": "NULL",
        "Family Housing (Ch.705)": "3",
        "Elderly / Handicapped Housing (Ch.667)": "120",
        "Special Needs Housing (Ch.167/189)": "NULL",
        "Massachusetts Rental Voucher Program Housing": "21",
        "Alternative Housing Voucher Program Housing": "NULL",
        "address": "10 WRENTHAM MANOR",
        "town": "BELLINGHAM",
        "zip": "02019",
        "phone": "508-883-4999"
      }
    },
    {
      "type": "Feature",
      "geometry": {
        "type": "Point",
        "coordinates": [
          -71.1810967,
          42.3926103
        ]
      },
      "properties": {
        "Name": "Belmont Housing Authority",
        "Family Housing (Ch.200)": "100",
        "Family Housing (Ch.705)": "NULL",
        "Elderly / Handicapped Housing (Ch.667)": "154",
        "Special Needs Housing (Ch.167/189)": "2",
        "Massachusetts Rental Voucher Program Housing": "2",
        "Alternative Housing Voucher Program Housing": "NULL",
        "address": "59 PEARSON ROAD",
        "town": "BELMONT",
        "zip": "02478",
        "phone": "617-484-2160"
      }
    },
    {
      "type": "Feature",
      "geometry": {
        "type": "Point",
        "coordinates": [
          -73.2530543,
          42.4507699
        ]
      },
      "properties": {
        "Name": "Berkshire County Regional Housing",
        "Family Housing (Ch.200)": "NULL",
        "Family Housing (Ch.705)": "8",
        "Elderly / Handicapped Housing (Ch.667)": "22",
        "Special Needs Housing (Ch.167/189)": "NULL",
        "Massachusetts Rental Voucher Program Housing": "NULL",
        "Alternative Housing Voucher Program Housing": "NULL",
        "address": "150 NORTH STREET",
        "town": "PITTSFIELD",
        "zip": "01201",
        "phone": "800-248-9002"
      }
    },
    {
      "type": "Feature",
      "geometry": {
        "type": "Point",
        "coordinates": [
          -70.8476708,
          42.5720581
        ]
      },
      "properties": {
        "Name": "Beverly Housing Authority",
        "Family Housing (Ch.200)": "117",
        "Family Housing (Ch.705)": "15",
        "Elderly / Handicapped Housing (Ch.667)": "345",
        "Special Needs Housing (Ch.167/189)": "8",
        "Massachusetts Rental Voucher Program Housing": "118",
        "Alternative Housing Voucher Program Housing": "NULL",
        "address": "137 BRIDGE ST. BOX 503",
        "town": "BEVERLY",
        "zip": "01915",
        "phone": "978-922-3100"
      }
    },
    {
      "type": "Feature",
      "geometry": {
        "type": "Point",
        "coordinates": [
          -71.27185,
          42.558945
        ]
      },
      "properties": {
        "Name": "Billerica Housing Authority",
        "Family Housing (Ch.200)": "NULL",
        "Family Housing (Ch.705)": "11",
        "Elderly / Handicapped Housing (Ch.667)": "177",
        "Special Needs Housing (Ch.167/189)": "16",
        "Massachusetts Rental Voucher Program Housing": "NULL",
        "Alternative Housing Voucher Program Housing": "NULL",
        "address": "16 RIVER STREET",
        "town": "BILLERCIA",
        "zip": "01821",
        "phone": "978-667-1661"
      }
    },
    {
      "type": "Feature",
      "geometry": {
        "type": "Point",
        "coordinates": [
          -71.53656099999999,
          42.019526
        ]
      },
      "properties": {
        "Name": "Blackstone Housing Authority",
        "Family Housing (Ch.200)": "NULL",
        "Family Housing (Ch.705)": "NULL",
        "Elderly / Handicapped Housing (Ch.667)": "56",
        "Special Needs Housing (Ch.167/189)": "NULL",
        "Massachusetts Rental Voucher Program Housing": "NULL",
        "Alternative Housing Voucher Program Housing": "NULL",
        "address": "15 FOXBROOK MANOR, AUSTIN St.",
        "town": "BLACKSTONE",
        "zip": "01504",
        "phone": "508-883-1515"
      }
    },
    {
      "type": "Feature",
      "geometry": {
        "type": "Point",
        "coordinates": [
          -71.06017369999999,
          42.353686
        ]
      },
      "properties": {
        "Name": "Boston Housing Authority",
        "Family Housing (Ch.200)": "2470",
        "Family Housing (Ch.705)": " 141",
        "Elderly / Handicapped Housing (Ch.667)": "193",
        "Special Needs Housing (Ch.167/189)": "14",
        "Massachusetts Rental Voucher Program Housing": "842",
        "Alternative Housing Voucher Program Housing": "NULL",
        "address": "52 CHAUNCY STREET",
        "town": "BOSTON",
        "zip": "02111",
        "phone": "617-451-1250"
      }
    },
    {
      "type": "Feature",
      "geometry": {
        "type": "Point",
        "coordinates": [
          -70.617211,
          41.691839
        ]
      },
      "properties": {
        "Name": "Bourne Housing Authority",
        "Family Housing (Ch.200)": "NULL",
        "Family Housing (Ch.705)": "14",
        "Elderly / Handicapped Housing (Ch.667)": "36",
        "Special Needs Housing (Ch.167/189)": "16",
        "Massachusetts Rental Voucher Program Housing": "20",
        "Alternative Housing Voucher Program Housing": "NULL",
        "address": "871 SHORE ROAD",
        "town": "POCASSET",
        "zip": "02559",
        "phone": "508-563-7485"
      }
    },
    {
      "type": "Feature",
      "geometry": {
        "type": "Point",
        "coordinates": [
          -71.0086505,
          42.169595
        ]
      },
      "properties": {
        "Name": "Braintree Housing Authority",
        "Family Housing (Ch.200)": "NULL",
        "Family Housing (Ch.705)": "7",
        "Elderly / Handicapped Housing (Ch.667)": "105",
        "Special Needs Housing (Ch.167/189)": "9",
        "Massachusetts Rental Voucher Program Housing": "90",
        "Alternative Housing Voucher Program Housing": "NULL",
        "address": "25 ROOSEVELT STREET",
        "town": "BRAINTREE",
        "zip": "02184",
        "phone": "781-848-1484"
      }
    },
    {
      "type": "Feature",
      "geometry": {
        "type": "Point",
        "coordinates": [
          -70.0888744,
          41.7539542
        ]
      },
      "properties": {
        "Name": "Brewster Housing Authority",
        "Family Housing (Ch.200)": "NULL",
        "Family Housing (Ch.705)": "24",
        "Elderly / Handicapped Housing (Ch.667)": "32",
        "Special Needs Housing (Ch.167/189)": "NULL",
        "Massachusetts Rental Voucher Program Housing": "27",
        "Alternative Housing Voucher Program Housing": "NULL",
        "address": "11 FREDERICK COURT",
        "town": "BREWSTER",
        "zip": "02631",
        "phone": "508-896-9800"
      }
    },
    {
      "type": "Feature",
      "geometry": {
        "type": "Point",
        "coordinates": [
          -70.9750541,
          41.9903519
        ]
      },
      "properties": {
        "Name": "Bridgewater Housing Authority",
        "Family Housing (Ch.200)": "NULL",
        "Family Housing (Ch.705)": " 12",
        "Elderly / Handicapped Housing (Ch.667)": "146",
        "Special Needs Housing (Ch.167/189)": "8",
        "Massachusetts Rental Voucher Program Housing": "3",
        "Alternative Housing Voucher Program Housing": "NULL",
        "address": "10 HERITAGE CIRCLE, PO BOX ",
        "town": "BRIDGEWATER",
        "zip": "02324",
        "phone": "508-697-7405"
      }
    },
    {
      "type": "Feature",
      "geometry": {
        "type": "Point",
        "coordinates": [
          -72.2005059,
          42.1225482
        ]
      },
      "properties": {
        "Name": "Brimfield Housing Authority",
        "Family Housing (Ch.200)": "NULL",
        "Family Housing (Ch.705)": "NULL",
        "Elderly / Handicapped Housing (Ch.667)": "56",
        "Special Needs Housing (Ch.167/189)": "NULL",
        "Massachusetts Rental Voucher Program Housing": "NULL",
        "Alternative Housing Voucher Program Housing": "NULL",
        "address": "20 COLONIAL PARK",
        "town": "BRIMFIELD",
        "zip": "01010",
        "phone": "413-245-7506"
      }
    },
    {
      "type": "Feature",
      "geometry": {
        "type": "Point",
        "coordinates": [
          -71.0243775,
          42.0824445
        ]
      },
      "properties": {
        "Name": "Brockton Housing Authority",
        "Family Housing (Ch.200)": "152",
        "Family Housing (Ch.705)": "  43",
        "Elderly / Handicapped Housing (Ch.667)": "550",
        "Special Needs Housing (Ch.167/189)": "20",
        "Massachusetts Rental Voucher Program Housing": "150",
        "Alternative Housing Voucher Program Housing": "40",
        "address": "45 GODDARD RD., BOX 340",
        "town": "BROCKTON",
        "zip": "02403",
        "phone": "508-588-6880"
      }
    },
    {
      "type": "Feature",
      "geometry": {
        "type": "Point",
        "coordinates": [
          -72.085666,
          42.27163059999999
        ]
      },
      "properties": {
        "Name": "Brookfield Housing Authority",
        "Family Housing (Ch.200)": "NULL",
        "Family Housing (Ch.705)": "2",
        "Elderly / Handicapped Housing (Ch.667)": "NULL",
        "Special Needs Housing (Ch.167/189)": "NULL",
        "Massachusetts Rental Voucher Program Housing": "NULL",
        "Alternative Housing Voucher Program Housing": "NULL",
        "address": "271 NO. MAIN STREET",
        "town": "NORTH BROOKFIELD",
        "zip": "01535",
        "phone": "508-867-2826"
      }
    },
    {
      "type": "Feature",
      "geometry": {
        "type": "Point",
        "coordinates": [
          -71.10010480000001,
          42.3357931
        ]
      },
      "properties": {
        "Name": "Brookline Housing Authority",
        "Family Housing (Ch.200)": "291",
        "Family Housing (Ch.705)": "84",
        "Elderly / Handicapped Housing (Ch.667)": "77",
        "Special Needs Housing (Ch.167/189)": "31",
        "Massachusetts Rental Voucher Program Housing": "125",
        "Alternative Housing Voucher Program Housing": "NULL",
        "address": "90 LONGWOOD AVENUE",
        "town": "BROOKLINE",
        "zip": "02146",
        "phone": "277-2022"
      }
    },
    {
      "type": "Feature",
      "geometry": {
        "type": "Point",
        "coordinates": [
          -71.19045779999999,
          42.50001899999999
        ]
      },
      "properties": {
        "Name": "Burlington Housing Authority",
        "Family Housing (Ch.200)": "NULL",
        "Family Housing (Ch.705)": "2",
        "Elderly / Handicapped Housing (Ch.667)": "105",
        "Special Needs Housing (Ch.167/189)": "NULL",
        "Massachusetts Rental Voucher Program Housing": "4",
        "Alternative Housing Voucher Program Housing": "NULL",
        "address": "15 BIRCHCREST ST.",
        "town": "BURLINGTON",
        "zip": "01803",
        "phone": "781-272-7786"
      }
    },
    {
      "type": "Feature",
      "geometry": {
        "type": "Point",
        "coordinates": [
          -71.10415429999999,
          42.3657567
        ]
      },
      "properties": {
        "Name": "Cambridge Housing Authority",
        "Family Housing (Ch.200)": "361",
        "Family Housing (Ch.705)": "42",
        "Elderly / Handicapped Housing (Ch.667)": "370",
        "Special Needs Housing (Ch.167/189)": "25",
        "Massachusetts Rental Voucher Program Housing": "158",
        "Alternative Housing Voucher Program Housing": "63",
        "address": "675 MASSACHUSETTS AVE",
        "town": "CAMBRIDGE",
        "zip": "02139",
        "phone": "617-864-3020"
      }
    },
    {
      "type": "Feature",
      "geometry": {
        "type": "Point",
        "coordinates": [
          -71.1447732,
          42.1584324
        ]
      },
      "properties": {
        "Name": "Canton Housing Authority",
        "Family Housing (Ch.200)": "26",
        "Family Housing (Ch.705)": " 7",
        "Elderly / Handicapped Housing (Ch.667)": "204",
        "Special Needs Housing (Ch.167/189)": "NULL",
        "Massachusetts Rental Voucher Program Housing": "5",
        "Alternative Housing Voucher Program Housing": "NULL",
        "address": "P.O. BOX 333",
        "town": "CANTON",
        "zip": "02021",
        "phone": "781-828-5144"
      }
    },
    {
      "type": "Feature",
      "geometry": {
        "type": "Point",
        "coordinates": [
          -70.7683423,
          41.8896579
        ]
      },
      "properties": {
        "Name": "Carver Housing Authority",
        "Family Housing (Ch.200)": "NULL",
        "Family Housing (Ch.705)": "8",
        "Elderly / Handicapped Housing (Ch.667)": "20",
        "Special Needs Housing (Ch.167/189)": "8",
        "Massachusetts Rental Voucher Program Housing": "NULL",
        "Alternative Housing Voucher Program Housing": "NULL",
        "address": "MEADOWBROOK WAY",
        "town": "CARVER",
        "zip": "02330",
        "phone": "508-866-3115"
      }
    },
    {
      "type": "Feature",
      "geometry": {
        "type": "Point",
        "coordinates": [
          -71.9742438,
          42.138748
        ]
      },
      "properties": {
        "Name": "Charlton Housing Authority",
        "Family Housing (Ch.200)": "NULL",
        "Family Housing (Ch.705)": "6",
        "Elderly / Handicapped Housing (Ch.667)": "30",
        "Special Needs Housing (Ch.167/189)": "NULL",
        "Massachusetts Rental Voucher Program Housing": "3",
        "Alternative Housing Voucher Program Housing": "10",
        "address": "1 MEADOWVIEW DRIVE",
        "town": "CHARLTON",
        "zip": "01507",
        "phone": "508-248-5067"
      }
    },
    {
      "type": "Feature",
      "geometry": {
        "type": "Point",
        "coordinates": [
          -69.96600649999999,
          41.6915666
        ]
      },
      "properties": {
        "Name": "Chatham Housing Authority",
        "Family Housing (Ch.200)": "NULL",
        "Family Housing (Ch.705)": "12",
        "Elderly / Handicapped Housing (Ch.667)": "59",
        "Special Needs Housing (Ch.167/189)": "14",
        "Massachusetts Rental Voucher Program Housing": "6",
        "Alternative Housing Voucher Program Housing": "NULL",
        "address": "240 CROWELL ROAD",
        "town": "CHATHAM",
        "zip": "02633",
        "phone": "508-945-0478"
      }
    },
    {
      "type": "Feature",
      "geometry": {
        "type": "Point",
        "coordinates": [
          -71.34828139999999,
          42.5983319
        ]
      },
      "properties": {
        "Name": "Chelmsford Housing Authority",
        "Family Housing (Ch.200)": "NULL",
        "Family Housing (Ch.705)": "11",
        "Elderly / Handicapped Housing (Ch.667)": "176",
        "Special Needs Housing (Ch.167/189)": "8",
        "Massachusetts Rental Voucher Program Housing": "2",
        "Alternative Housing Voucher Program Housing": "NULL",
        "address": "10 WILSON STREET",
        "town": "CHELMSFORD",
        "zip": "01824",
        "phone": "978-256-7425"
      }
    },
    {
      "type": "Feature",
      "geometry": {
        "type": "Point",
        "coordinates": [
          -71.027168,
          42.40437499999999
        ]
      },
      "properties": {
        "Name": "Chelsea Housing Authority",
        "Family Housing (Ch.200)": "294",
        "Family Housing (Ch.705)": "NULL",
        "Elderly / Handicapped Housing (Ch.667)": "266",
        "Special Needs Housing (Ch.167/189)": "NULL",
        "Massachusetts Rental Voucher Program Housing": "113",
        "Alternative Housing Voucher Program Housing": "10",
        "address": "54 LOCKE STREET",
        "town": "CHELSEA",
        "zip": "02150",
        "phone": "617-884-5617"
      }
    },
    {
      "type": "Feature",
      "geometry": {
        "type": "Point",
        "coordinates": [
          -72.6182508,
          42.1676352
        ]
      },
      "properties": {
        "Name": "Chicopee Housing Authority",
        "Family Housing (Ch.200)": "226",
        "Family Housing (Ch.705)": "80",
        "Elderly / Handicapped Housing (Ch.667)": "510",
        "Special Needs Housing (Ch.167/189)": "NULL",
        "Massachusetts Rental Voucher Program Housing": "NULL",
        "Alternative Housing Voucher Program Housing": "NULL",
        "address": "128 MEETINGHOUSE ROAD",
        "town": "CHICOPEE",
        "zip": "01013",
        "phone": "413-592-6132"
      }
    },
    {
      "type": "Feature",
      "geometry": {
        "type": "Point",
        "coordinates": [
          -71.69664,
          42.4204544
        ]
      },
      "properties": {
        "Name": "Clinton Housing Authority",
        "Family Housing (Ch.200)": "34",
        "Family Housing (Ch.705)": " NULL",
        "Elderly / Handicapped Housing (Ch.667)": "135",
        "Special Needs Housing (Ch.167/189)": "8",
        "Massachusetts Rental Voucher Program Housing": "15",
        "Alternative Housing Voucher Program Housing": "NULL",
        "address": "58 FITCH ROAD",
        "town": "CLINTON",
        "zip": "01510",
        "phone": "978-365-4150"
      }
    },
    {
      "type": "Feature",
      "geometry": {
        "type": "Point",
        "coordinates": [
          -70.798007,
          42.24203
        ]
      },
      "properties": {
        "Name": "Cohasset Housing Authority",
        "Family Housing (Ch.200)": "NULL",
        "Family Housing (Ch.705)": "NULL",
        "Elderly / Handicapped Housing (Ch.667)": "64",
        "Special Needs Housing (Ch.167/189)": "12",
        "Massachusetts Rental Voucher Program Housing": "NULL",
        "Alternative Housing Voucher Program Housing": "NULL",
        "address": "60 ELM STREET",
        "town": "COHASSET",
        "zip": "02025",
        "phone": "781-383-1948"
      }
    },
    {
      "type": "Feature",
      "geometry": {
        "type": "Point",
        "coordinates": [
          -71.34961100000001,
          42.45687299999999
        ]
      },
      "properties": {
        "Name": "Concord Housing Authority",
        "Family Housing (Ch.200)": "NULL",
        "Family Housing (Ch.705)": "28",
        "Elderly / Handicapped Housing (Ch.667)": "88",
        "Special Needs Housing (Ch.167/189)": "8",
        "Massachusetts Rental Voucher Program Housing": "NULL",
        "Alternative Housing Voucher Program Housing": "NULL",
        "address": "115 STOW STREET",
        "town": "CONCORD",
        "zip": "01742",
        "phone": "978-369-8435"
      }
    },
    {
      "type": "Feature",
      "geometry": {
        "type": "Point",
        "coordinates": [
          -73.1662138,
          42.4736959
        ]
      },
      "properties": {
        "Name": "Dalton Housing Authority",
        "Family Housing (Ch.200)": "NULL",
        "Family Housing (Ch.705)": "6",
        "Elderly / Handicapped Housing (Ch.667)": "72",
        "Special Needs Housing (Ch.167/189)": "NULL",
        "Massachusetts Rental Voucher Program Housing": "NULL",
        "Alternative Housing Voucher Program Housing": "NULL",
        "address": "293 HIGH STREET, Pine Grove Manor",
        "town": "DALTON",
        "zip": "01226",
        "phone": "413-684-2493"
      }
    },
    {
      "type": "Feature",
      "geometry": {
        "type": "Point",
        "coordinates": [
          -70.957657,
          42.562581
        ]
      },
      "properties": {
        "Name": "Danvers Housing Authority",
        "Family Housing (Ch.200)": "NULL",
        "Family Housing (Ch.705)": "16",
        "Elderly / Handicapped Housing (Ch.667)": "165",
        "Special Needs Housing (Ch.167/189)": "28",
        "Massachusetts Rental Voucher Program Housing": "NULL",
        "Alternative Housing Voucher Program Housing": "NULL",
        "address": "14 STONE STREET",
        "town": "DANVERS",
        "zip": "01923",
        "phone": "978-777-0909"
      }
    },
    {
      "type": "Feature",
      "geometry": {
        "type": "Point",
        "coordinates": [
          -70.9822624,
          41.63966689999999
        ]
      },
      "properties": {
        "Name": "Dartmouth Housing Authority",
        "Family Housing (Ch.200)": "NULL",
        "Family Housing (Ch.705)": "NULL",
        "Elderly / Handicapped Housing (Ch.667)": "124",
        "Special Needs Housing (Ch.167/189)": "NULL",
        "Massachusetts Rental Voucher Program Housing": "NULL",
        "Alternative Housing Voucher Program Housing": "NULL",
        "address": "2 ANDERSON WAY",
        "town": "N. DARTMOUTH",
        "zip": "02747",
        "phone": "508-994-1424"
      }
    },
    {
      "type": "Feature",
      "geometry": {
        "type": "Point",
        "coordinates": [
          -71.15048329999999,
          42.2486602
        ]
      },
      "properties": {
        "Name": "Dedham Housing Authority",
        "Family Housing (Ch.200)": "106",
        "Family Housing (Ch.705)": "NULL",
        "Elderly / Handicapped Housing (Ch.667)": "205",
        "Special Needs Housing (Ch.167/189)": "8",
        "Massachusetts Rental Voucher Program Housing": "NULL",
        "Alternative Housing Voucher Program Housing": "NULL",
        "address": "163 DEDHAM BOULEVARD",
        "town": "DEDHAM",
        "zip": "02026",
        "phone": "781-326-3543"
      }
    },
    {
      "type": "Feature",
      "geometry": {
        "type": "Point",
        "coordinates": [
          -70.1434761,
          41.6752498
        ]
      },
      "properties": {
        "Name": "Dennis Housing Authority",
        "Family Housing (Ch.200)": "NULL",
        "Family Housing (Ch.705)": "20",
        "Elderly / Handicapped Housing (Ch.667)": "124",
        "Special Needs Housing (Ch.167/189)": "8",
        "Massachusetts Rental Voucher Program Housing": "67",
        "Alternative Housing Voucher Program Housing": "NULL",
        "address": "167 CENTRE STREET",
        "town": "SO. DENNIS",
        "zip": "02660",
        "phone": "508-394-3120"
      }
    },
    {
      "type": "Feature",
      "geometry": {
        "type": "Point",
        "coordinates": [
          -71.12484100000002,
          41.859501
        ]
      },
      "properties": {
        "Name": "Dighton Housing Authority",
        "Family Housing (Ch.200)": "NULL",
        "Family Housing (Ch.705)": "NULL",
        "Elderly / Handicapped Housing (Ch.667)": "64",
        "Special Needs Housing (Ch.167/189)": "8",
        "Massachusetts Rental Voucher Program Housing": "NULL",
        "Alternative Housing Voucher Program Housing": "NULL",
        "address": "300 LINCOLN AVE. ",
        "town": "NO. DIGHTON",
        "zip": "02764",
        "phone": "508-823-8361"
      }
    },
    {
      "type": "Feature",
      "geometry": {
        "type": "Point",
        "coordinates": [
          -71.3510369,
          42.6749724
        ]
      },
      "properties": {
        "Name": "Dracut Housing Authority",
        "Family Housing (Ch.200)": "NULL",
        "Family Housing (Ch.705)": "36",
        "Elderly / Handicapped Housing (Ch.667)": "133",
        "Special Needs Housing (Ch.167/189)": "8",
        "Massachusetts Rental Voucher Program Housing": "NULL",
        "Alternative Housing Voucher Program Housing": "NULL",
        "address": "971 MAMMOTH ROAD",
        "town": "DRACUT",
        "zip": "01826",
        "phone": "508-957-3515"
      }
    },
    {
      "type": "Feature",
      "geometry": {
        "type": "Point",
        "coordinates": [
          -71.9120392,
          42.0401037
        ]
      },
      "properties": {
        "Name": "Dudley Housing Authority",
        "Family Housing (Ch.200)": "NULL",
        "Family Housing (Ch.705)": "NULL",
        "Elderly / Handicapped Housing (Ch.667)": "80",
        "Special Needs Housing (Ch.167/189)": "8",
        "Massachusetts Rental Voucher Program Housing": "NULL",
        "Alternative Housing Voucher Program Housing": "NULL",
        "address": "JOSHUA PLACE APARTMENTS",
        "town": "DUDLEY",
        "zip": "01570",
        "phone": "508-949-0522"
      }
    },
    {
      "type": "Feature",
      "geometry": {
        "type": "Point",
        "coordinates": [
          -70.5502916,
          41.363871
        ]
      },
      "properties": {
        "Name": "Dukes County Regional Housing",
        "Family Housing (Ch.200)": "NULL",
        "Family Housing (Ch.705)": "NULL",
        "Elderly / Handicapped Housing (Ch.667)": "NULL",
        "Special Needs Housing (Ch.167/189)": "8",
        "Massachusetts Rental Voucher Program Housing": "NULL",
        "Alternative Housing Voucher Program Housing": "NULL",
        "address": "PO BOX 190",
        "town": "EDGARTOWN",
        "zip": "02539",
        "phone": "508-645-9274"
      }
    },
    {
      "type": "Feature",
      "geometry": {
        "type": "Point",
        "coordinates": [
          -70.6861675,
          42.0243316
        ]
      },
      "properties": {
        "Name": "Duxbury Housing Authority",
        "Family Housing (Ch.200)": "NULL",
        "Family Housing (Ch.705)": "6",
        "Elderly / Handicapped Housing (Ch.667)": "52",
        "Special Needs Housing (Ch.167/189)": "8",
        "Massachusetts Rental Voucher Program Housing": "3",
        "Alternative Housing Voucher Program Housing": "NULL",
        "address": "59 CHESTNUT STREET",
        "town": "DUXBURY",
        "zip": "02332",
        "phone": "781-934-6618"
      }
    },
    {
      "type": "Feature",
      "geometry": {
        "type": "Point",
        "coordinates": [
          -70.941889,
          42.0293028
        ]
      },
      "properties": {
        "Name": "East Bridgewater Housing Authority",
        "Family Housing (Ch.200)": "NULL",
        "Family Housing (Ch.705)": "8",
        "Elderly / Handicapped Housing (Ch.667)": "129",
        "Special Needs Housing (Ch.167/189)": "8",
        "Massachusetts Rental Voucher Program Housing": "NULL",
        "Alternative Housing Voucher Program Housing": "NULL",
        "address": "38 RIDDELL ROAD",
        "town": "EAST BRIDGEWATER",
        "zip": "02333",
        "phone": "508-378-3838"
      }
    },
    {
      "type": "Feature",
      "geometry": {
        "type": "Point",
        "coordinates": [
          -72.5072388,
          42.0586507
        ]
      },
      "properties": {
        "Name": "East Longmeadow Housing Authority",
        "Family Housing (Ch.200)": "NULL",
        "Family Housing (Ch.705)": "6",
        "Elderly / Handicapped Housing (Ch.667)": "188",
        "Special Needs Housing (Ch.167/189)": "NULL",
        "Massachusetts Rental Voucher Program Housing": "25",
        "Alternative Housing Voucher Program Housing": "NULL",
        "address": "81 QUARRY HILL",
        "town": "EAST LONGMEADOW",
        "zip": "01028",
        "phone": "413-525-7057"
      }
    },
    {
      "type": "Feature",
      "geometry": {
        "type": "Point",
        "coordinates": [
          -72.65711399999999,
          42.25420099999999
        ]
      },
      "properties": {
        "Name": "Easthampton Housing Authority",
        "Family Housing (Ch.200)": "31",
        "Family Housing (Ch.705)": " 4",
        "Elderly / Handicapped Housing (Ch.667)": "151",
        "Special Needs Housing (Ch.167/189)": "2",
        "Massachusetts Rental Voucher Program Housing": "NULL",
        "Alternative Housing Voucher Program Housing": "NULL",
        "address": "112 HOLYOKE St.",
        "town": "EASTHAMPTON",
        "zip": "01027",
        "phone": "413-527-1600"
      }
    },
    {
      "type": "Feature",
      "geometry": {
        "type": "Point",
        "coordinates": [
          -71.098378,
          42.057612
        ]
      },
      "properties": {
        "Name": "Easton Housing Authority",
        "Family Housing (Ch.200)": "NULL",
        "Family Housing (Ch.705)": "10",
        "Elderly / Handicapped Housing (Ch.667)": "184",
        "Special Needs Housing (Ch.167/189)": "NULL",
        "Massachusetts Rental Voucher Program Housing": "NULL",
        "Alternative Housing Voucher Program Housing": "NULL",
        "address": "PARKER TERRACE",
        "town": "NO. EASTON",
        "zip": "02356",
        "phone": "508-238-4747"
      }
    },
    {
      "type": "Feature",
      "geometry": {
        "type": "Point",
        "coordinates": [
          -70.7763169,
          42.6352771
        ]
      },
      "properties": {
        "Name": "Essex Housing Authority",
        "Family Housing (Ch.200)": "NULL",
        "Family Housing (Ch.705)": "NULL",
        "Elderly / Handicapped Housing (Ch.667)": "40",
        "Special Needs Housing (Ch.167/189)": "NULL",
        "Massachusetts Rental Voucher Program Housing": "NULL",
        "Alternative Housing Voucher Program Housing": "NULL",
        "address": "P.O. BOX 934",
        "town": "ESSEX",
        "zip": "01929",
        "phone": "978-768-6821"
      }
    },
    {
      "type": "Feature",
      "geometry": {
        "type": "Point",
        "coordinates": [
          -71.048977,
          42.4163234
        ]
      },
      "properties": {
        "Name": "Everett Housing Authority",
        "Family Housing (Ch.200)": "392",
        "Family Housing (Ch.705)": "NULL",
        "Elderly / Handicapped Housing (Ch.667)": "279",
        "Special Needs Housing (Ch.167/189)": "NULL",
        "Massachusetts Rental Voucher Program Housing": "55",
        "Alternative Housing Voucher Program Housing": "NULL",
        "address": "393 FERRY STREET",
        "town": "EVERETT",
        "zip": "02149",
        "phone": "617-387-6389"
      }
    },
    {
      "type": "Feature",
      "geometry": {
        "type": "Point",
        "coordinates": [
          -70.9090068,
          41.6522488
        ]
      },
      "properties": {
        "Name": "Fairhaven Housing Authority",
        "Family Housing (Ch.200)": "NULL",
        "Family Housing (Ch.705)": "6",
        "Elderly / Handicapped Housing (Ch.667)": "279",
        "Special Needs Housing (Ch.167/189)": "NULL",
        "Massachusetts Rental Voucher Program Housing": "NULL",
        "Alternative Housing Voucher Program Housing": "NULL",
        "address": "275 MAIN STREET",
        "town": "FAIRHAVEN",
        "zip": "02719",
        "phone": "508-993-1144"
      }
    },
    {
      "type": "Feature",
      "geometry": {
        "type": "Point",
        "coordinates": [
          -71.1558372,
          41.7013978
        ]
      },
      "properties": {
        "Name": "Fall River Housing Authority",
        "Family Housing (Ch.200)": "427",
        "Family Housing (Ch.705)": "33",
        "Elderly / Handicapped Housing (Ch.667)": "422",
        "Special Needs Housing (Ch.167/189)": "40",
        "Massachusetts Rental Voucher Program Housing": "102",
        "Alternative Housing Voucher Program Housing": "17",
        "address": "85 MORGAN ST. BOX 989",
        "town": "FALL RIVER",
        "zip": "02722",
        "phone": "508-675-3500"
      }
    },
    {
      "type": "Feature",
      "geometry": {
        "type": "Point",
        "coordinates": [
          -70.604849,
          41.551055
        ]
      },
      "properties": {
        "Name": "Falmouth Housing Authority",
        "Family Housing (Ch.200)": "NULL",
        "Family Housing (Ch.705)": "25",
        "Elderly / Handicapped Housing (Ch.667)": "114",
        "Special Needs Housing (Ch.167/189)": "8",
        "Massachusetts Rental Voucher Program Housing": "15",
        "Alternative Housing Voucher Program Housing": "NULL",
        "address": "115 SCRANTON AVENUE",
        "town": "FALMOUTH",
        "zip": "02540",
        "phone": "508-548-1977"
      }
    },
    {
      "type": "Feature",
      "geometry": {
        "type": "Point",
        "coordinates": [
          -71.795506,
          42.583233
        ]
      },
      "properties": {
        "Name": "Fitchburg Housing Authority",
        "Family Housing (Ch.200)": "160",
        "Family Housing (Ch.705)": "15",
        "Elderly / Handicapped Housing (Ch.667)": "369",
        "Special Needs Housing (Ch.167/189)": "26",
        "Massachusetts Rental Voucher Program Housing": "47",
        "Alternative Housing Voucher Program Housing": "10",
        "address": "50 DAY STREET",
        "town": "FITCHBURG",
        "zip": "01420",
        "phone": "978-342-5222"
      }
    },
    {
      "type": "Feature",
      "geometry": {
        "type": "Point",
        "coordinates": [
          -71.2523155,
          42.0739327
        ]
      },
      "properties": {
        "Name": "Foxborough Housing Authority",
        "Family Housing (Ch.200)": "NULL",
        "Family Housing (Ch.705)": "41",
        "Elderly / Handicapped Housing (Ch.667)": "104",
        "Special Needs Housing (Ch.167/189)": "8",
        "Massachusetts Rental Voucher Program Housing": "4",
        "Alternative Housing Voucher Program Housing": "6",
        "address": "90 N. CARL-ANNON COURT",
        "town": "FOXBOROUGH",
        "zip": "02035",
        "phone": "508-543-5960"
      }
    },
    {
      "type": "Feature",
      "geometry": {
        "type": "Point",
        "coordinates": [
          -71.4121172,
          42.2912626
        ]
      },
      "properties": {
        "Name": "Framingham Housing Authority",
        "Family Housing (Ch.200)": "185",
        "Family Housing (Ch.705)": "64",
        "Elderly / Handicapped Housing (Ch.667)": "561",
        "Special Needs Housing (Ch.167/189)": "24",
        "Massachusetts Rental Voucher Program Housing": "56",
        "Alternative Housing Voucher Program Housing": "NULL",
        "address": "1 JOHN J. BRADY DRIVE",
        "town": "FRAMINGHAM",
        "zip": "01702",
        "phone": "508-879-7562"
      }
    },
    {
      "type": "Feature",
      "geometry": {
        "type": "Point",
        "coordinates": [
          -71.3947579,
          42.0734855
        ]
      },
      "properties": {
        "Name": "Franklin Housing Authority",
        "Family Housing (Ch.200)": "28",
        "Family Housing (Ch.705)": " 5",
        "Elderly / Handicapped Housing (Ch.667)": "165",
        "Special Needs Housing (Ch.167/189)": "8",
        "Massachusetts Rental Voucher Program Housing": "NULL",
        "Alternative Housing Voucher Program Housing": "NULL",
        "address": "CENTRAL PARK TERRACE",
        "town": "FRANKLIN",
        "zip": "02038",
        "phone": "508-528-2220"
      }
    },
    {
      "type": "Feature",
      "geometry": {
        "type": "Point",
        "coordinates": [
          -72.5594946,
          42.6086824
        ]
      },
      "properties": {
        "Name": "Franklin County Regional Housing",
        "Family Housing (Ch.200)": "NULL",
        "Family Housing (Ch.705)": "27",
        "Elderly / Handicapped Housing (Ch.667)": "71",
        "Special Needs Housing (Ch.167/189)": "NULL",
        "Massachusetts Rental Voucher Program Housing": "NULL",
        "Alternative Housing Voucher Program Housing": "NULL",
        "address": "42 CANAL ROAD, PO. BOX 30",
        "town": "TURNERS FALLS",
        "zip": "01376",
        "phone": "413-863-9781"
      }
    },
    {
      "type": "Feature",
      "geometry": {
        "type": "Point",
        "coordinates": [
          -72.0033338,
          42.5737998
        ]
      },
      "properties": {
        "Name": "Gardner Housing Authority",
        "Family Housing (Ch.200)": "67",
        "Family Housing (Ch.705)": " 13",
        "Elderly / Handicapped Housing (Ch.667)": "261",
        "Special Needs Housing (Ch.167/189)": "7",
        "Massachusetts Rental Voucher Program Housing": "15",
        "Alternative Housing Voucher Program Housing": "NULL",
        "address": "116 CHURCH STREET",
        "town": "GARDNER",
        "zip": "01440",
        "phone": "978-632-6627"
      }
    },
    {
      "type": "Feature",
      "geometry": {
        "type": "Point",
        "coordinates": [
          -71.0018449,
          42.7317826
        ]
      },
      "properties": {
        "Name": "Georgetown Housing Authority",
        "Family Housing (Ch.200)": "NULL",
        "Family Housing (Ch.705)": "10",
        "Elderly / Handicapped Housing (Ch.667)": "126",
        "Special Needs Housing (Ch.167/189)": "NULL",
        "Massachusetts Rental Voucher Program Housing": "NULL",
        "Alternative Housing Voucher Program Housing": "NULL",
        "address": "23 TRESTLE WAY",
        "town": "GEORGETOWN",
        "zip": "01833",
        "phone": "978-352-6331"
      }
    },
    {
      "type": "Feature",
      "geometry": {
        "type": "Point",
        "coordinates": [
          -70.6765576,
          42.6231152
        ]
      },
      "properties": {
        "Name": "Gloucester Housing Authority",
        "Family Housing (Ch.200)": "160",
        "Family Housing (Ch.705)": "15",
        "Elderly / Handicapped Housing (Ch.667)": "362",
        "Special Needs Housing (Ch.167/189)": "8",
        "Massachusetts Rental Voucher Program Housing": "37",
        "Alternative Housing Voucher Program Housing": "NULL",
        "address": "257 WASHINGTON ST. P.O. BOX 1599",
        "town": "GLOUCESTER",
        "zip": "01931",
        "phone": "978-283-1234"
      }
    },
    {
      "type": "Feature",
      "geometry": {
        "type": "Point",
        "coordinates": [
          -71.6987991,
          42.2212471
        ]
      },
      "properties": {
        "Name": "Grafton Housing Authority",
        "Family Housing (Ch.200)": "16",
        "Family Housing (Ch.705)": " 6",
        "Elderly / Handicapped Housing (Ch.667)": "128",
        "Special Needs Housing (Ch.167/189)": "20",
        "Massachusetts Rental Voucher Program Housing": "2",
        "Alternative Housing Voucher Program Housing": "NULL",
        "address": "10 MAXWELL DRIVE",
        "town": "NO. GRAFTON",
        "zip": "01536",
        "phone": "508-839-6089"
      }
    },
    {
      "type": "Feature",
      "geometry": {
        "type": "Point",
        "coordinates": [
          -72.53826959999999,
          42.2503729
        ]
      },
      "properties": {
        "Name": "Granby Housing Authority",
        "Family Housing (Ch.200)": "NULL",
        "Family Housing (Ch.705)": "2",
        "Elderly / Handicapped Housing (Ch.667)": "56",
        "Special Needs Housing (Ch.167/189)": "NULL",
        "Massachusetts Rental Voucher Program Housing": "NULL",
        "Alternative Housing Voucher Program Housing": "NULL",
        "address": "50 PHIN'S HILL MANOR",
        "town": "GRANBY",
        "zip": "01033",
        "phone": "413-467-9300"
      }
    },
    {
      "type": "Feature",
      "geometry": {
        "type": "Point",
        "coordinates": [
          -72.6107454,
          42.5958231
        ]
      },
      "properties": {
        "Name": "Greenfield Housing Authority",
        "Family Housing (Ch.200)": "72",
        "Family Housing (Ch.705)": " 40",
        "Elderly / Handicapped Housing (Ch.667)": "128",
        "Special Needs Housing (Ch.167/189)": "8",
        "Massachusetts Rental Voucher Program Housing": "106",
        "Alternative Housing Voucher Program Housing": "NULL",
        "address": "ONE ELM TERRACE",
        "town": "GREENFIELD",
        "zip": "01301",
        "phone": "413-774-2932"
      }
    },
    {
      "type": "Feature",
      "geometry": {
        "type": "Point",
        "coordinates": [
          -71.5675747,
          42.6058471
        ]
      },
      "properties": {
        "Name": "Groton Housing Authority",
        "Family Housing (Ch.200)": "NULL",
        "Family Housing (Ch.705)": "7",
        "Elderly / Handicapped Housing (Ch.667)": "27",
        "Special Needs Housing (Ch.167/189)": "NULL",
        "Massachusetts Rental Voucher Program Housing": "NULL",
        "Alternative Housing Voucher Program Housing": "NULL",
        "address": "19 LOWELL RD",
        "town": "GROTON",
        "zip": "01450",
        "phone": "978-448-3962"
      }
    },
    {
      "type": "Feature",
      "geometry": {
        "type": "Point",
        "coordinates": [
          -71.02459329999999,
          42.7674134
        ]
      },
      "properties": {
        "Name": "Groveland Housing Authority",
        "Family Housing (Ch.200)": "NULL",
        "Family Housing (Ch.705)": "2",
        "Elderly / Handicapped Housing (Ch.667)": "NULL",
        "Special Needs Housing (Ch.167/189)": "NULL",
        "Massachusetts Rental Voucher Program Housing": "NULL",
        "Alternative Housing Voucher Program Housing": "NULL",
        "address": "10 RIVER PINES",
        "town": "GROVELAND",
        "zip": "01834",
        "phone": "978-374-0370"
      }
    },
    {
      "type": "Feature",
      "geometry": {
        "type": "Point",
        "coordinates": [
          -73.3604917,
          42.2496989
        ]
      },
      "properties": {
        "Name": "Great Barrington Housing Authority",
        "Family Housing (Ch.200)": "NULL",
        "Family Housing (Ch.705)": "16",
        "Elderly / Handicapped Housing (Ch.667)": "64",
        "Special Needs Housing (Ch.167/189)": "8",
        "Massachusetts Rental Voucher Program Housing": "NULL",
        "Alternative Housing Voucher Program Housing": "NULL",
        "address": "2 BERRNARD GIBBONS DR",
        "town": "GREAT BARRINGTON",
        "zip": "01230",
        "phone": "413-274-1142"
      }
    },
    {
      "type": "Feature",
      "geometry": {
        "type": "Point",
        "coordinates": [
          -72.5863169,
          42.3446232
        ]
      },
      "properties": {
        "Name": "Hadley Housing Authority",
        "Family Housing (Ch.200)": "NULL",
        "Family Housing (Ch.705)": "12",
        "Elderly / Handicapped Housing (Ch.667)": "40",
        "Special Needs Housing (Ch.167/189)": "NULL",
        "Massachusetts Rental Voucher Program Housing": "NULL",
        "Alternative Housing Voucher Program Housing": "NULL",
        "address": "42 GOLDEN COURT",
        "town": "HADLEY",
        "zip": "01035",
        "phone": "413-584-3868"
      }
    },
    {
      "type": "Feature",
      "geometry": {
        "type": "Point",
        "coordinates": [
          -70.84279719999999,
          41.9919009
        ]
      },
      "properties": {
        "Name": "Halifax Housing Authority",
        "Family Housing (Ch.200)": "NULL",
        "Family Housing (Ch.705)": "8",
        "Elderly / Handicapped Housing (Ch.667)": "20",
        "Special Needs Housing (Ch.167/189)": "NULL",
        "Massachusetts Rental Voucher Program Housing": "NULL",
        "Alternative Housing Voucher Program Housing": "NULL",
        "address": "1 PARSON LANE",
        "town": "HALIFAX",
        "zip": "02338",
        "phone": "781-294-4520"
      }
    },
    {
      "type": "Feature",
      "geometry": {
        "type": "Point",
        "coordinates": [
          -70.8771285,
          42.6120181
        ]
      },
      "properties": {
        "Name": "Hamilton Housing Authority",
        "Family Housing (Ch.200)": "NULL",
        "Family Housing (Ch.705)": "7",
        "Elderly / Handicapped Housing (Ch.667)": "52",
        "Special Needs Housing (Ch.167/189)": "8",
        "Massachusetts Rental Voucher Program Housing": "NULL",
        "Alternative Housing Voucher Program Housing": "NULL",
        "address": "121 RAILROAD AVENUE",
        "town": "SO. HAMILTON",
        "zip": "01982",
        "phone": "978-468-3981"
      }
    },
    {
      "type": "Feature",
      "geometry": {
        "type": "Point",
        "coordinates": [
          -72.4402197,
          42.0551874
        ]
      },
      "properties": {
        "Name": "Hampden Housing Authority",
        "Family Housing (Ch.200)": "NULL",
        "Family Housing (Ch.705)": "NULL",
        "Elderly / Handicapped Housing (Ch.667)": "56",
        "Special Needs Housing (Ch.167/189)": "NULL",
        "Massachusetts Rental Voucher Program Housing": "NULL",
        "Alternative Housing Voucher Program Housing": "NULL",
        "address": "26 SPRINGMEADOW LANE",
        "town": "HAMPDEN",
        "zip": "01036",
        "phone": "413-566-8157"
      }
    },
    {
      "type": "Feature",
      "geometry": {
        "type": "Point",
        "coordinates": [
          -72.8913714,
          42.459188
        ]
      },
      "properties": {
        "Name": "Hampshire County Regional Housing",
        "Family Housing (Ch.200)": "NULL",
        "Family Housing (Ch.705)": "4",
        "Elderly / Handicapped Housing (Ch.667)": "36",
        "Special Needs Housing (Ch.167/189)": "NULL",
        "Massachusetts Rental Voucher Program Housing": "NULL",
        "Alternative Housing Voucher Program Housing": "NULL",
        "address": "RRI BOX A 15",
        "town": "CUMMINGTON",
        "zip": "01026",
        "phone": "634-5000"
      }
    },
    {
      "type": "Feature",
      "geometry": {
        "type": "Point",
        "coordinates": [
          -70.8420967,
          42.1465432
        ]
      },
      "properties": {
        "Name": "Hanover Housing Authority",
        "Family Housing (Ch.200)": "NULL",
        "Family Housing (Ch.705)": "NULL",
        "Elderly / Handicapped Housing (Ch.667)": "NULL",
        "Special Needs Housing (Ch.167/189)": "NULL",
        "Massachusetts Rental Voucher Program Housing": "6",
        "Alternative Housing Voucher Program Housing": "NULL",
        "address": "TOWN HALL",
        "town": "HANOVER",
        "zip": "02339",
        "phone": "781-826-8431"
      }
    },
    {
      "type": "Feature",
      "geometry": {
        "type": "Point",
        "coordinates": [
          -70.8743963,
          42.0647717
        ]
      },
      "properties": {
        "Name": "Hanson Housing Authority",
        "Family Housing (Ch.200)": "NULL",
        "Family Housing (Ch.705)": "NULL",
        "Elderly / Handicapped Housing (Ch.667)": "68",
        "Special Needs Housing (Ch.167/189)": "8",
        "Massachusetts Rental Voucher Program Housing": "NULL",
        "Alternative Housing Voucher Program Housing": "NULL",
        "address": "MEETINGHOUSE LANE",
        "town": "HANSON",
        "zip": "02341",
        "phone": "781-293-7474"
      }
    },
    {
      "type": "Feature",
      "geometry": {
        "type": "Point",
        "coordinates": [
          -70.090787,
          41.673732
        ]
      },
      "properties": {
        "Name": "Harwich Housing Authority",
        "Family Housing (Ch.200)": "NULL",
        "Family Housing (Ch.705)": "12",
        "Elderly / Handicapped Housing (Ch.667)": "NULL",
        "Special Needs Housing (Ch.167/189)": "8",
        "Massachusetts Rental Voucher Program Housing": "12",
        "Alternative Housing Voucher Program Housing": "NULL",
        "address": "38 SISSON RD, P.O. BOX 714",
        "town": "HARWICHPORT",
        "zip": "02646",
        "phone": "508-430-2390"
      }
    },
    {
      "type": "Feature",
      "geometry": {
        "type": "Point",
        "coordinates": [
          -72.597139,
          42.373838
        ]
      },
      "properties": {
        "Name": "Hatfield Housing Authority",
        "Family Housing (Ch.200)": "NULL",
        "Family Housing (Ch.705)": "NULL",
        "Elderly / Handicapped Housing (Ch.667)": "44",
        "Special Needs Housing (Ch.167/189)": "NULL",
        "Massachusetts Rental Voucher Program Housing": "NULL",
        "Alternative Housing Voucher Program Housing": "NULL",
        "address": "2 SCHOOL STREET",
        "town": "HATFIELD",
        "zip": "01038",
        "phone": "413-247-9202"
      }
    },
    {
      "type": "Feature",
      "geometry": {
        "type": "Point",
        "coordinates": [
          -71.0819454,
          42.7737943
        ]
      },
      "properties": {
        "Name": "Haverhill Housing Authority",
        "Family Housing (Ch.200)": "104",
        "Family Housing (Ch.705)": "34",
        "Elderly / Handicapped Housing (Ch.667)": "302",
        "Special Needs Housing (Ch.167/189)": "6",
        "Massachusetts Rental Voucher Program Housing": "51",
        "Alternative Housing Voucher Program Housing": "NULL",
        "address": "P. O. BOX 751",
        "town": "HAVERHILL",
        "zip": "01831",
        "phone": "508-372-6761"
      }
    },
    {
      "type": "Feature",
      "geometry": {
        "type": "Point",
        "coordinates": [
          -70.89899609999999,
          42.2436848
        ]
      },
      "properties": {
        "Name": "Hingham Housing Authority",
        "Family Housing (Ch.200)": "NULL",
        "Family Housing (Ch.705)": "8",
        "Elderly / Handicapped Housing (Ch.667)": "84",
        "Special Needs Housing (Ch.167/189)": "14",
        "Massachusetts Rental Voucher Program Housing": "1",
        "Alternative Housing Voucher Program Housing": "NULL",
        "address": "30 THAXTER STREET",
        "town": "HINGHAM",
        "zip": "02043",
        "phone": "781-741-1417"
      }
    },
    {
      "type": "Feature",
      "geometry": {
        "type": "Point",
        "coordinates": [
          -71.00704120000002,
          42.1260596
        ]
      },
      "properties": {
        "Name": "Holbrook Housing Authority",
        "Family Housing (Ch.200)": "NULL",
        "Family Housing (Ch.705)": "10",
        "Elderly / Handicapped Housing (Ch.667)": "74",
        "Special Needs Housing (Ch.167/189)": "NULL",
        "Massachusetts Rental Voucher Program Housing": "8",
        "Alternative Housing Voucher Program Housing": "NULL",
        "address": "ONE HOLBROOK COURT",
        "town": "HOLBROOK",
        "zip": "02343",
        "phone": "781-767-0024"
      }
    },
    {
      "type": "Feature",
      "geometry": {
        "type": "Point",
        "coordinates": [
          -71.8558795,
          42.3505457
        ]
      },
      "properties": {
        "Name": "Holden Housing Authority",
        "Family Housing (Ch.200)": "NULL",
        "Family Housing (Ch.705)": "8",
        "Elderly / Handicapped Housing (Ch.667)": "48",
        "Special Needs Housing (Ch.167/189)": "NULL",
        "Massachusetts Rental Voucher Program Housing": "4",
        "Alternative Housing Voucher Program Housing": "NULL",
        "address": "9 FLAGLER DRIVE",
        "town": "HOLDEN",
        "zip": "01520",
        "phone": "508-829-9182"
      }
    },
    {
      "type": "Feature",
      "geometry": {
        "type": "Point",
        "coordinates": [
          -71.42680419999999,
          42.2088884
        ]
      },
      "properties": {
        "Name": "Holliston Housing Authority",
        "Family Housing (Ch.200)": "NULL",
        "Family Housing (Ch.705)": "6",
        "Elderly / Handicapped Housing (Ch.667)": "72",
        "Special Needs Housing (Ch.167/189)": "NULL",
        "Massachusetts Rental Voucher Program Housing": "NULL",
        "Alternative Housing Voucher Program Housing": "NULL",
        "address": "492 WASHINGTON ST. COLE COURT",
        "town": "HOLLISTON",
        "zip": "01746",
        "phone": "508-429-6266"
      }
    },
    {
      "type": "Feature",
      "geometry": {
        "type": "Point",
        "coordinates": [
          -72.616805,
          42.199355
        ]
      },
      "properties": {
        "Name": "Holyoke Housing Authority",
        "Family Housing (Ch.200)": "217",
        "Family Housing (Ch.705)": "12",
        "Elderly / Handicapped Housing (Ch.667)": "60",
        "Special Needs Housing (Ch.167/189)": "8",
        "Massachusetts Rental Voucher Program Housing": "146",
        "Alternative Housing Voucher Program Housing": "NULL",
        "address": "475 MAPLE STREET",
        "town": "HOLYKOE",
        "zip": "01040",
        "phone": "413-534-2220"
      }
    },
    {
      "type": "Feature",
      "geometry": {
        "type": "Point",
        "coordinates": [
          -71.56165419999999,
          42.1355735
        ]
      },
      "properties": {
        "Name": "Hopedale Housing Authority",
        "Family Housing (Ch.200)": "NULL",
        "Family Housing (Ch.705)": "NULL",
        "Elderly / Handicapped Housing (Ch.667)": "80",
        "Special Needs Housing (Ch.167/189)": "NULL",
        "Massachusetts Rental Voucher Program Housing": "NULL",
        "Alternative Housing Voucher Program Housing": "NULL",
        "address": "BOX 182",
        "town": "HOPEDALE",
        "zip": "01747",
        "phone": "508-473-8120"
      }
    },
    {
      "type": "Feature",
      "geometry": {
        "type": "Point",
        "coordinates": [
          -71.5253115,
          42.2306822
        ]
      },
      "properties": {
        "Name": "Hopkinton Housing Authority",
        "Family Housing (Ch.200)": "NULL",
        "Family Housing (Ch.705)": "6",
        "Elderly / Handicapped Housing (Ch.667)": "92",
        "Special Needs Housing (Ch.167/189)": "NULL",
        "Massachusetts Rental Voucher Program Housing": "1",
        "Alternative Housing Voucher Program Housing": "NULL",
        "address": "100 DAVIS ROAD",
        "town": "HOPKINTON",
        "zip": "01748",
        "phone": "508-435-6022"
      }
    },
    {
      "type": "Feature",
      "geometry": {
        "type": "Point",
        "coordinates": [
          -71.5730488,
          42.3844968
        ]
      },
      "properties": {
        "Name": "Hudson Housing Authority",
        "Family Housing (Ch.200)": "NULL",
        "Family Housing (Ch.705)": "NULL",
        "Elderly / Handicapped Housing (Ch.667)": "126",
        "Special Needs Housing (Ch.167/189)": "16",
        "Massachusetts Rental Voucher Program Housing": "18",
        "Alternative Housing Voucher Program Housing": "11",
        "address": "8 BRIGHAM CIRCLE",
        "town": "HUDSON",
        "zip": "01749",
        "phone": "978-562-9268"
      }
    },
    {
      "type": "Feature",
      "geometry": {
        "type": "Point",
        "coordinates": [
          -70.8467345,
          42.2660131
        ]
      },
      "properties": {
        "Name": "Hull Housing Authority",
        "Family Housing (Ch.200)": "28",
        "Family Housing (Ch.705)": " NULL",
        "Elderly / Handicapped Housing (Ch.667)": "40",
        "Special Needs Housing (Ch.167/189)": "NULL",
        "Massachusetts Rental Voucher Program Housing": "NULL",
        "Alternative Housing Voucher Program Housing": "NULL",
        "address": "6 ATLANTIC HOUSE COURT",
        "town": "HULL",
        "zip": "02045",
        "phone": "781-925-4544"
      }
    },
    {
      "type": "Feature",
      "geometry": {
        "type": "Point",
        "coordinates": [
          -70.8371598,
          42.67083969999999
        ]
      },
      "properties": {
        "Name": "Ipswich Housing Authority",
        "Family Housing (Ch.200)": "24",
        "Family Housing (Ch.705)": " 14",
        "Elderly / Handicapped Housing (Ch.667)": "200",
        "Special Needs Housing (Ch.167/189)": "12",
        "Massachusetts Rental Voucher Program Housing": "36",
        "Alternative Housing Voucher Program Housing": "9",
        "address": "ONE AGAWAM VILLAGE",
        "town": "IPSWICH",
        "zip": "01938",
        "phone": "356-2860"
      }
    },
    {
      "type": "Feature",
      "geometry": {
        "type": "Point",
        "coordinates": [
          -70.7270845,
          41.9912167
        ]
      },
      "properties": {
        "Name": "Kingston Housing Authority",
        "Family Housing (Ch.200)": "NULL",
        "Family Housing (Ch.705)": "NULL",
        "Elderly / Handicapped Housing (Ch.667)": "48",
        "Special Needs Housing (Ch.167/189)": "8",
        "Massachusetts Rental Voucher Program Housing": "NULL",
        "Alternative Housing Voucher Program Housing": "NULL",
        "address": "15 HILLCREST ROAD",
        "town": "KINGSTON",
        "zip": "02364",
        "phone": "781-585-8028"
      }
    },
    {
      "type": "Feature",
      "geometry": {
        "type": "Point",
        "coordinates": [
          -71.686622,
          42.4390247
        ]
      },
      "properties": {
        "Name": "Lancaster Housing Authority",
        "Family Housing (Ch.200)": "NULL",
        "Family Housing (Ch.705)": "NULL",
        "Elderly / Handicapped Housing (Ch.667)": "70",
        "Special Needs Housing (Ch.167/189)": "NULL",
        "Massachusetts Rental Voucher Program Housing": "NULL",
        "Alternative Housing Voucher Program Housing": "NULL",
        "address": "MAIN STREET, P.O. BOX 507",
        "town": "SO. LANCASTER",
        "zip": "01561",
        "phone": " 978-365-3923"
      }
    },
    {
      "type": "Feature",
      "geometry": {
        "type": "Point",
        "coordinates": [
          -71.16633,
          42.7113548
        ]
      },
      "properties": {
        "Name": "Lawrence Housing Authority",
        "Family Housing (Ch.200)": "451",
        "Family Housing (Ch.705)": "NULL",
        "Elderly / Handicapped Housing (Ch.667)": "71",
        "Special Needs Housing (Ch.167/189)": "NULL",
        "Massachusetts Rental Voucher Program Housing": "104",
        "Alternative Housing Voucher Program Housing": "NULL",
        "address": "353 ELM STREET",
        "town": "LAWRENCE",
        "zip": "01842",
        "phone": "978-683-2751"
      }
    },
    {
      "type": "Feature",
      "geometry": {
        "type": "Point",
        "coordinates": [
          -73.2490938,
          42.2980761
        ]
      },
      "properties": {
        "Name": "Lee Housing Authority",
        "Family Housing (Ch.200)": "NULL",
        "Family Housing (Ch.705)": "16",
        "Elderly / Handicapped Housing (Ch.667)": "48",
        "Special Needs Housing (Ch.167/189)": "12",
        "Massachusetts Rental Voucher Program Housing": "NULL",
        "Alternative Housing Voucher Program Housing": "NULL",
        "address": "155 MARBLE STREET",
        "town": "LEE",
        "zip": "01238",
        "phone": "413-243-3464"
      }
    },
    {
      "type": "Feature",
      "geometry": {
        "type": "Point",
        "coordinates": [
          -71.9093134,
          42.2460292
        ]
      },
      "properties": {
        "Name": "Leicester Housing Authority",
        "Family Housing (Ch.200)": "NULL",
        "Family Housing (Ch.705)": "NULL",
        "Elderly / Handicapped Housing (Ch.667)": "124",
        "Special Needs Housing (Ch.167/189)": "8",
        "Massachusetts Rental Voucher Program Housing": "NULL",
        "Alternative Housing Voucher Program Housing": "NULL",
        "address": "1075 MAIN STREET",
        "town": "LEICESTER",
        "zip": "01524",
        "phone": "508-892-4620"
      }
    },
    {
      "type": "Feature",
      "geometry": {
        "type": "Point",
        "coordinates": [
          -73.28412999999999,
          42.356848
        ]
      },
      "properties": {
        "Name": "Lenox Housing Authority",
        "Family Housing (Ch.200)": "NULL",
        "Family Housing (Ch.705)": "8",
        "Elderly / Handicapped Housing (Ch.667)": "102",
        "Special Needs Housing (Ch.167/189)": "12",
        "Massachusetts Rental Voucher Program Housing": "NULL",
        "Alternative Housing Voucher Program Housing": "NULL",
        "address": "6 MAIN STREET",
        "town": "LENOX",
        "zip": "01240",
        "phone": ""
      }
    },
    {
      "type": "Feature",
      "geometry": {
        "type": "Point",
        "coordinates": [
          -71.7576302,
          42.5291955
        ]
      },
      "properties": {
        "Name": "Leominster Housing Authority",
        "Family Housing (Ch.200)": "73",
        "Family Housing (Ch.705)": " 10",
        "Elderly / Handicapped Housing (Ch.667)": "343",
        "Special Needs Housing (Ch.167/189)": "NULL",
        "Massachusetts Rental Voucher Program Housing": "21",
        "Alternative Housing Voucher Program Housing": "NULL",
        "address": "100 MAIN STREET",
        "town": "LEOMINSTER",
        "zip": "01453",
        "phone": "978-537-5300"
      }
    },
    {
      "type": "Feature",
      "geometry": {
        "type": "Point",
        "coordinates": [
          -71.20063449999999,
          42.448849
        ]
      },
      "properties": {
        "Name": "Lexington Housing Authority",
        "Family Housing (Ch.200)": "NULL",
        "Family Housing (Ch.705)": "1",
        "Elderly / Handicapped Housing (Ch.667)": "NULL",
        "Special Needs Housing (Ch.167/189)": "16",
        "Massachusetts Rental Voucher Program Housing": "20",
        "Alternative Housing Voucher Program Housing": "NULL",
        "address": "ONE COUNTRYSIDE VILLAGE",
        "town": "LEXINGTON",
        "zip": "02420",
        "phone": "781-861-0900"
      }
    },
    {
      "type": "Feature",
      "geometry": {
        "type": "Point",
        "coordinates": [
          -71.47986,
          42.54472
        ]
      },
      "properties": {
        "Name": "Littleton Housing Authority",
        "Family Housing (Ch.200)": "NULL",
        "Family Housing (Ch.705)": "12",
        "Elderly / Handicapped Housing (Ch.667)": "48",
        "Special Needs Housing (Ch.167/189)": "8",
        "Massachusetts Rental Voucher Program Housing": "9",
        "Alternative Housing Voucher Program Housing": "NULL",
        "address": "19 SHATTUCK STREET",
        "town": "LITTLETON",
        "zip": "01460",
        "phone": "978-486-8833"
      }
    },
    {
      "type": "Feature",
      "geometry": {
        "type": "Point",
        "coordinates": [
          -71.3088746,
          42.6443102
        ]
      },
      "properties": {
        "Name": "Lowell Housing Authority",
        "Family Housing (Ch.200)": "NULL",
        "Family Housing (Ch.705)": "64",
        "Elderly / Handicapped Housing (Ch.667)": "175",
        "Special Needs Housing (Ch.167/189)": "16",
        "Massachusetts Rental Voucher Program Housing": "80",
        "Alternative Housing Voucher Program Housing": "NULL",
        "address": "P. O. BOX 60",
        "town": "LOWELL",
        "zip": "01853",
        "phone": "978-937-3500"
      }
    },
    {
      "type": "Feature",
      "geometry": {
        "type": "Point",
        "coordinates": [
          -72.48286399999999,
          42.171368
        ]
      },
      "properties": {
        "Name": "Ludlow Housing Authority",
        "Family Housing (Ch.200)": "NULL",
        "Family Housing (Ch.705)": "16",
        "Elderly / Handicapped Housing (Ch.667)": "150",
        "Special Needs Housing (Ch.167/189)": "NULL",
        "Massachusetts Rental Voucher Program Housing": "NULL",
        "Alternative Housing Voucher Program Housing": "NULL",
        "address": "114 WILSON STREET",
        "town": "LUDLOW",
        "zip": "01056",
        "phone": "413-589-7272"
      }
    },
    {
      "type": "Feature",
      "geometry": {
        "type": "Point",
        "coordinates": [
          -71.7576429,
          42.5291965
        ]
      },
      "properties": {
        "Name": "Lunenburg Housing Authority",
        "Family Housing (Ch.200)": "NULL",
        "Family Housing (Ch.705)": "6",
        "Elderly / Handicapped Housing (Ch.667)": "48",
        "Special Needs Housing (Ch.167/189)": "NULL",
        "Massachusetts Rental Voucher Program Housing": "NULL",
        "Alternative Housing Voucher Program Housing": "NULL",
        "address": "C/O Leominster Housing Authority 100 MAIN STREET",
        "town": "LEOMINSTER",
        "zip": "01453",
        "phone": "978-537-5300"
      }
    },
    {
      "type": "Feature",
      "geometry": {
        "type": "Point",
        "coordinates": [
          -70.9529855,
          42.4618487
        ]
      },
      "properties": {
        "Name": "Lynn Housing Authority",
        "Family Housing (Ch.200)": "NULL",
        "Family Housing (Ch.705)": "35",
        "Elderly / Handicapped Housing (Ch.667)": "354",
        "Special Needs Housing (Ch.167/189)": "16",
        "Massachusetts Rental Voucher Program Housing": "320",
        "Alternative Housing Voucher Program Housing": "20",
        "address": "10 CHURCH STREET",
        "town": "LYNN",
        "zip": "01902",
        "phone": "781-477-2800"
      }
    },
    {
      "type": "Feature",
      "geometry": {
        "type": "Point",
        "coordinates": [
          -71.0084406,
          42.5150425
        ]
      },
      "properties": {
        "Name": "Lynnfield Housing Authority",
        "Family Housing (Ch.200)": "NULL",
        "Family Housing (Ch.705)": "NULL",
        "Elderly / Handicapped Housing (Ch.667)": "64",
        "Special Needs Housing (Ch.167/189)": "8",
        "Massachusetts Rental Voucher Program Housing": "NULL",
        "Alternative Housing Voucher Program Housing": "NULL",
        "address": "600 ROSS DRIVE",
        "town": "LYNNFIELD",
        "zip": "01940",
        "phone": "781-581-5783"
      }
    },
    {
      "type": "Feature",
      "geometry": {
        "type": "Point",
        "coordinates": [
          -71.04762099999999,
          42.433435
        ]
      },
      "properties": {
        "Name": "Malden Housing Authority",
        "Family Housing (Ch.200)": "220",
        "Family Housing (Ch.705)": "NULL",
        "Elderly / Handicapped Housing (Ch.667)": "176",
        "Special Needs Housing (Ch.167/189)": "18",
        "Massachusetts Rental Voucher Program Housing": "16",
        "Alternative Housing Voucher Program Housing": "NULL",
        "address": "630 SALEM STREET",
        "town": "MALDEN",
        "zip": "02148",
        "phone": "781-322-9460"
      }
    },
    {
      "type": "Feature",
      "geometry": {
        "type": "Point",
        "coordinates": [
          -70.7675967,
          42.577834
        ]
      },
      "properties": {
        "Name": "Manchester Housing Authority",
        "Family Housing (Ch.200)": "NULL",
        "Family Housing (Ch.705)": "4",
        "Elderly / Handicapped Housing (Ch.667)": "80",
        "Special Needs Housing (Ch.167/189)": "NULL",
        "Massachusetts Rental Voucher Program Housing": "NULL",
        "Alternative Housing Voucher Program Housing": "NULL",
        "address": "P.O.BOX  608",
        "town": "MANCHESTER",
        "zip": "01944",
        "phone": "978-526-1850"
      }
    },
    {
      "type": "Feature",
      "geometry": {
        "type": "Point",
        "coordinates": [
          -71.2068791,
          42.0360283
        ]
      },
      "properties": {
        "Name": "Mansfield Housing Authority",
        "Family Housing (Ch.200)": "10",
        "Family Housing (Ch.705)": "13",
        "Elderly / Handicapped Housing (Ch.667)": "131",
        "Special Needs Housing (Ch.167/189)": "8",
        "Massachusetts Rental Voucher Program Housing": "11",
        "Alternative Housing Voucher Program Housing": "NULL",
        "address": "22 BICENTENNIAL COURT",
        "town": "MANSFIELD",
        "zip": "02048",
        "phone": "508-339-6890"
      }
    },
    {
      "type": "Feature",
      "geometry": {
        "type": "Point",
        "coordinates": [
          -70.85829799999999,
          42.499152
        ]
      },
      "properties": {
        "Name": "Marblehead Housing Authority",
        "Family Housing (Ch.200)": "76",
        "Family Housing (Ch.705)": " 8",
        "Elderly / Handicapped Housing (Ch.667)": "223",
        "Special Needs Housing (Ch.167/189)": "NULL",
        "Massachusetts Rental Voucher Program Housing": "NULL",
        "Alternative Housing Voucher Program Housing": "NULL",
        "address": "26 ROWLAND STREET",
        "town": "MARBLEHEAD",
        "zip": "01945",
        "phone": ""
      }
    },
    {
      "type": "Feature",
      "geometry": {
        "type": "Point",
        "coordinates": [
          -71.55119979999999,
          42.3464299
        ]
      },
      "properties": {
        "Name": "Marlborough CD Authority",
        "Family Housing (Ch.200)": "NULL",
        "Family Housing (Ch.705)": "NULL",
        "Elderly / Handicapped Housing (Ch.667)": "227",
        "Special Needs Housing (Ch.167/189)": "12",
        "Massachusetts Rental Voucher Program Housing": "21",
        "Alternative Housing Voucher Program Housing": "6",
        "address": "240 MAIN STREET",
        "town": "MARLBOROUGH",
        "zip": "01752",
        "phone": "508-624-6908  "
      }
    },
    {
      "type": "Feature",
      "geometry": {
        "type": "Point",
        "coordinates": [
          -70.7090056,
          42.0888917
        ]
      },
      "properties": {
        "Name": "Marshfield Housing Authority",
        "Family Housing (Ch.200)": "NULL",
        "Family Housing (Ch.705)": "16",
        "Elderly / Handicapped Housing (Ch.667)": "97",
        "Special Needs Housing (Ch.167/189)": "NULL",
        "Massachusetts Rental Voucher Program Housing": "13",
        "Alternative Housing Voucher Program Housing": "NULL",
        "address": "12 TEA ROCK GARDENS",
        "town": "MARSHFIELD",
        "zip": "02050",
        "phone": "781-834-4333"
      }
    },
    {
      "type": "Feature",
      "geometry": {
        "type": "Point",
        "coordinates": [
          -70.495327,
          41.615656
        ]
      },
      "properties": {
        "Name": "Mashpee Housing Authority",
        "Family Housing (Ch.200)": "NULL",
        "Family Housing (Ch.705)": "6",
        "Elderly / Handicapped Housing (Ch.667)": "24",
        "Special Needs Housing (Ch.167/189)": "NULL",
        "Massachusetts Rental Voucher Program Housing": "63",
        "Alternative Housing Voucher Program Housing": "NULL",
        "address": "7 JOB'S FISHING RD",
        "town": "MASHPEE",
        "zip": "02649",
        "phone": "508-477-6202"
      }
    },
    {
      "type": "Feature",
      "geometry": {
        "type": "Point",
        "coordinates": [
          -70.8238874,
          41.6716258
        ]
      },
      "properties": {
        "Name": "Mattapoisett Housing Authority",
        "Family Housing (Ch.200)": "10",
        "Family Housing (Ch.705)": " NULL",
        "Elderly / Handicapped Housing (Ch.667)": "54",
        "Special Needs Housing (Ch.167/189)": "NULL",
        "Massachusetts Rental Voucher Program Housing": "NULL",
        "Alternative Housing Voucher Program Housing": "NULL",
        "address": "ONE ACUSHNET RD. BOX 358",
        "town": "MATTAPOISETT",
        "zip": "02739",
        "phone": "508-758-4664"
      }
    },
    {
      "type": "Feature",
      "geometry": {
        "type": "Point",
        "coordinates": [
          -71.4388463,
          42.4382044
        ]
      },
      "properties": {
        "Name": "Maynard Housing Authority",
        "Family Housing (Ch.200)": "NULL",
        "Family Housing (Ch.705)": "NULL",
        "Elderly / Handicapped Housing (Ch.667)": "112",
        "Special Needs Housing (Ch.167/189)": "NULL",
        "Massachusetts Rental Voucher Program Housing": "51",
        "Alternative Housing Voucher Program Housing": "NULL",
        "address": "15 POWDERMILL CIRCLE",
        "town": "MAYNARD",
        "zip": "01754",
        "phone": "508-897-8738"
      }
    },
    {
      "type": "Feature",
      "geometry": {
        "type": "Point",
        "coordinates": [
          -71.29844489999999,
          42.1864208
        ]
      },
      "properties": {
        "Name": "Medfield Housing Authority",
        "Family Housing (Ch.200)": "NULL",
        "Family Housing (Ch.705)": "NULL",
        "Elderly / Handicapped Housing (Ch.667)": "60",
        "Special Needs Housing (Ch.167/189)": "NULL",
        "Massachusetts Rental Voucher Program Housing": "26",
        "Alternative Housing Voucher Program Housing": "NULL",
        "address": "TILDEN VILLAGE, 30 POUND ST.",
        "town": "MEDFIELD",
        "zip": "02052",
        "phone": "508-359-6454"
      }
    },
    {
      "type": "Feature",
      "geometry": {
        "type": "Point",
        "coordinates": [
          -71.10423,
          42.4163877
        ]
      },
      "properties": {
        "Name": "Medford Housing Authority",
        "Family Housing (Ch.200)": "0",
        "Family Housing (Ch.705)": "NULL",
        "Elderly / Handicapped Housing (Ch.667)": "144",
        "Special Needs Housing (Ch.167/189)": "8",
        "Massachusetts Rental Voucher Program Housing": "20",
        "Alternative Housing Voucher Program Housing": "NULL",
        "address": "121 RIVERSIDE AVENUE",
        "town": "MEDFORD",
        "zip": "02155",
        "phone": "781-396-7200"
      }
    },
    {
      "type": "Feature",
      "geometry": {
        "type": "Point",
        "coordinates": [
          -71.4206038,
          42.15369339999999
        ]
      },
      "properties": {
        "Name": "Medway Housing Authority",
        "Family Housing (Ch.200)": "NULL",
        "Family Housing (Ch.705)": "NULL",
        "Elderly / Handicapped Housing (Ch.667)": "94",
        "Special Needs Housing (Ch.167/189)": "9",
        "Massachusetts Rental Voucher Program Housing": "2",
        "Alternative Housing Voucher Program Housing": "NULL",
        "address": "MAHAN CIRCLE",
        "town": "MEDWAY",
        "zip": "02053",
        "phone": "508-533-2434"
      }
    },
    {
      "type": "Feature",
      "geometry": {
        "type": "Point",
        "coordinates": [
          -71.062276,
          42.465811
        ]
      },
      "properties": {
        "Name": "Melrose Housing Authority",
        "Family Housing (Ch.200)": "NULL",
        "Family Housing (Ch.705)": "17",
        "Elderly / Handicapped Housing (Ch.667)": "305",
        "Special Needs Housing (Ch.167/189)": "24",
        "Massachusetts Rental Voucher Program Housing": "3",
        "Alternative Housing Voucher Program Housing": "9",
        "address": "910 MAIN STREET",
        "town": "MELROSE",
        "zip": "02176",
        "phone": "781-665-1622"
      }
    },
    {
      "type": "Feature",
      "geometry": {
        "type": "Point",
        "coordinates": [
          -71.49712699999999,
          42.092526
        ]
      },
      "properties": {
        "Name": "Mendon Housing Authority",
        "Family Housing (Ch.200)": "NULL",
        "Family Housing (Ch.705)": "NULL",
        "Elderly / Handicapped Housing (Ch.667)": "30",
        "Special Needs Housing (Ch.167/189)": "NULL",
        "Massachusetts Rental Voucher Program Housing": "NULL",
        "Alternative Housing Voucher Program Housing": "NULL",
        "address": "9 BLACKSTONE ST. BOX 55",
        "town": "MENDON",
        "zip": "01756",
        "phone": "508-473-9130"
      }
    },
    {
      "type": "Feature",
      "geometry": {
        "type": "Point",
        "coordinates": [
          -71.0002739,
          42.8293065
        ]
      },
      "properties": {
        "Name": "Merrimac Housing Authority",
        "Family Housing (Ch.200)": "NULL",
        "Family Housing (Ch.705)": "4",
        "Elderly / Handicapped Housing (Ch.667)": "48",
        "Special Needs Housing (Ch.167/189)": "NULL",
        "Massachusetts Rental Voucher Program Housing": "NULL",
        "Alternative Housing Voucher Program Housing": "NULL",
        "address": "52 MERRI VILLAGE",
        "town": "MERRIMAC",
        "zip": "01860",
        "phone": ""
      }
    },
    {
      "type": "Feature",
      "geometry": {
        "type": "Point",
        "coordinates": [
          -71.197675,
          42.724084
        ]
      },
      "properties": {
        "Name": "Methuen Housing Authority",
        "Family Housing (Ch.200)": "60",
        "Family Housing (Ch.705)": " 14",
        "Elderly / Handicapped Housing (Ch.667)": "297",
        "Special Needs Housing (Ch.167/189)": "40",
        "Massachusetts Rental Voucher Program Housing": "14",
        "Alternative Housing Voucher Program Housing": "NULL",
        "address": "24 MYSTIC STREET",
        "town": "METHUEN",
        "zip": "01844",
        "phone": "978-682-8607  "
      }
    },
    {
      "type": "Feature",
      "geometry": {
        "type": "Point",
        "coordinates": [
          -70.9107708,
          41.8929942
        ]
      },
      "properties": {
        "Name": "Middleborough Housing Authority",
        "Family Housing (Ch.200)": "28",
        "Family Housing (Ch.705)": " NULL",
        "Elderly / Handicapped Housing (Ch.667)": "154",
        "Special Needs Housing (Ch.167/189)": "8",
        "Massachusetts Rental Voucher Program Housing": "2",
        "Alternative Housing Voucher Program Housing": "NULL",
        "address": "P.O. BOX 502",
        "town": "MIDDLEBOROUGH",
        "zip": "02346",
        "phone": "508-947-3824"
      }
    },
    {
      "type": "Feature",
      "geometry": {
        "type": "Point",
        "coordinates": [
          -71.0122555,
          42.5900143
        ]
      },
      "properties": {
        "Name": "Middleton Housing Authority",
        "Family Housing (Ch.200)": "NULL",
        "Family Housing (Ch.705)": "12",
        "Elderly / Handicapped Housing (Ch.667)": "54",
        "Special Needs Housing (Ch.167/189)": "NULL",
        "Massachusetts Rental Voucher Program Housing": "NULL",
        "Alternative Housing Voucher Program Housing": "NULL",
        "address": "ORCHARD CIRCLE",
        "town": "MIDDLETON",
        "zip": "01949",
        "phone": "978-774-4333"
      }
    },
    {
      "type": "Feature",
      "geometry": {
        "type": "Point",
        "coordinates": [
          -71.5188988,
          42.1511483
        ]
      },
      "properties": {
        "Name": "Milford Housing Authority",
        "Family Housing (Ch.200)": "69",
        "Family Housing (Ch.705)": " 23",
        "Elderly / Handicapped Housing (Ch.667)": "180",
        "Special Needs Housing (Ch.167/189)": "16",
        "Massachusetts Rental Voucher Program Housing": "42",
        "Alternative Housing Voucher Program Housing": "NULL",
        "address": "45 BIRMINGHAM COURT",
        "town": "MILFORD",
        "zip": "01757",
        "phone": "508-473-9521"
      }
    },
    {
      "type": "Feature",
      "geometry": {
        "type": "Point",
        "coordinates": [
          -71.760252,
          42.1913556
        ]
      },
      "properties": {
        "Name": "Millbury Housing Authority",
        "Family Housing (Ch.200)": "25",
        "Family Housing (Ch.705)": " 13",
        "Elderly / Handicapped Housing (Ch.667)": "169",
        "Special Needs Housing (Ch.167/189)": "NULL",
        "Massachusetts Rental Voucher Program Housing": "6",
        "Alternative Housing Voucher Program Housing": "NULL",
        "address": "89 ELM STREET",
        "town": "MILLBURY",
        "zip": "01527",
        "phone": "508-865-2660"
      }
    },
    {
      "type": "Feature",
      "geometry": {
        "type": "Point",
        "coordinates": [
          -71.35947999999999,
          42.17502
        ]
      },
      "properties": {
        "Name": "Millis Housing Authority",
        "Family Housing (Ch.200)": "NULL",
        "Family Housing (Ch.705)": "10",
        "Elderly / Handicapped Housing (Ch.667)": "73",
        "Special Needs Housing (Ch.167/189)": "NULL",
        "Massachusetts Rental Voucher Program Housing": "2",
        "Alternative Housing Voucher Program Housing": "NULL",
        "address": "KENNEDY TERRACE",
        "town": "MILLIS",
        "zip": "02054",
        "phone": "508-376-8181"
      }
    },
    {
      "type": "Feature",
      "geometry": {
        "type": "Point",
        "coordinates": [
          -71.055408,
          42.2494129
        ]
      },
      "properties": {
        "Name": "Milton Housing Authority",
        "Family Housing (Ch.200)": "NULL",
        "Family Housing (Ch.705)": "12",
        "Elderly / Handicapped Housing (Ch.667)": "39",
        "Special Needs Housing (Ch.167/189)": "14",
        "Massachusetts Rental Voucher Program Housing": "3",
        "Alternative Housing Voucher Program Housing": "NULL",
        "address": "65 MILLER AVENUE",
        "town": "MILTON",
        "zip": "02186",
        "phone": "617-698-2169"
      }
    },
    {
      "type": "Feature",
      "geometry": {
        "type": "Point",
        "coordinates": [
          -72.2943839,
          42.150521
        ]
      },
      "properties": {
        "Name": "Monson Housing Authority",
        "Family Housing (Ch.200)": "NULL",
        "Family Housing (Ch.705)": "17",
        "Elderly / Handicapped Housing (Ch.667)": "78",
        "Special Needs Housing (Ch.167/189)": "NULL",
        "Massachusetts Rental Voucher Program Housing": "16",
        "Alternative Housing Voucher Program Housing": "NULL",
        "address": "50 COLONIAL VILLAGE",
        "town": "MONSON",
        "zip": "01057",
        "phone": "413-267-4047"
      }
    },
    {
      "type": "Feature",
      "geometry": {
        "type": "Point",
        "coordinates": [
          -72.552831,
          42.593556
        ]
      },
      "properties": {
        "Name": "Montague Housing Authority",
        "Family Housing (Ch.200)": "30",
        "Family Housing (Ch.705)": "NULL",
        "Elderly / Handicapped Housing (Ch.667)": "80",
        "Special Needs Housing (Ch.167/189)": "NULL",
        "Massachusetts Rental Voucher Program Housing": "NULL",
        "Alternative Housing Voucher Program Housing": "NULL",
        "address": "41 SUNRISE TERRACE",
        "town": "TURNER FALLS",
        "zip": "01376",
        "phone": "413-863-8445"
      }
    },
    {
      "type": "Feature",
      "geometry": {
        "type": "Point",
        "coordinates": [
          -71.33,
          41.9799999
        ]
      },
      "properties": {
        "Name": "North Andover Housing Authority",
        "Family Housing (Ch.200)": "24",
        "Family Housing (Ch.705)": " 2",
        "Elderly / Handicapped Housing (Ch.667)": "164",
        "Special Needs Housing (Ch.167/189)": "NULL",
        "Massachusetts Rental Voucher Program Housing": "4",
        "Alternative Housing Voucher Program Housing": "NULL",
        "address": "P. O. BOX 66",
        "town": "NORTH ATTLEBORO",
        "zip": "02761",
        "phone": "695-5142"
      }
    },
    {
      "type": "Feature",
      "geometry": {
        "type": "Point",
        "coordinates": [
          -71.33,
          41.9799999
        ]
      },
      "properties": {
        "Name": "North Attleborough Housing Authority",
        "Family Housing (Ch.200)": "20",
        "Family Housing (Ch.705)": " 14",
        "Elderly / Handicapped Housing (Ch.667)": "226",
        "Special Needs Housing (Ch.167/189)": "12",
        "Massachusetts Rental Voucher Program Housing": "2",
        "Alternative Housing Voucher Program Housing": "NULL",
        "address": "P. O. BOX 66",
        "town": "NORTH ATTLEBORO",
        "zip": "02761",
        "phone": "695-5142"
      }
    },
    {
      "type": "Feature",
      "geometry": {
        "type": "Point",
        "coordinates": [
          -72.085666,
          42.27163059999999
        ]
      },
      "properties": {
        "Name": "North Brookfield Housing Authority",
        "Family Housing (Ch.200)": "NULL",
        "Family Housing (Ch.705)": "14",
        "Elderly / Handicapped Housing (Ch.667)": "64",
        "Special Needs Housing (Ch.167/189)": "NULL",
        "Massachusetts Rental Voucher Program Housing": "1",
        "Alternative Housing Voucher Program Housing": "NULL",
        "address": "271 NORTH MAIN STREET",
        "town": "NORTH BROOKFIELD",
        "zip": "01535",
        "phone": "508-867-2826  "
      }
    },
    {
      "type": "Feature",
      "geometry": {
        "type": "Point",
        "coordinates": [
          -71.0806419,
          42.57566629999999
        ]
      },
      "properties": {
        "Name": "North Reading Housing Authority",
        "Family Housing (Ch.200)": "NULL",
        "Family Housing (Ch.705)": "4",
        "Elderly / Handicapped Housing (Ch.667)": "40",
        "Special Needs Housing (Ch.167/189)": "NULL",
        "Massachusetts Rental Voucher Program Housing": "NULL",
        "Alternative Housing Voucher Program Housing": "NULL",
        "address": "PEABODY COURT",
        "town": "NORTH READING",
        "zip": "01864",
        "phone": "978-664-2982"
      }
    },
    {
      "type": "Feature",
      "geometry": {
        "type": "Point",
        "coordinates": [
          -70.9279301,
          42.4272831
        ]
      },
      "properties": {
        "Name": "Nahant Housing Authority",
        "Family Housing (Ch.200)": "14",
        "Family Housing (Ch.705)": " 5",
        "Elderly / Handicapped Housing (Ch.667)": "29",
        "Special Needs Housing (Ch.167/189)": "NULL",
        "Massachusetts Rental Voucher Program Housing": "NULL",
        "Alternative Housing Voucher Program Housing": "NULL",
        "address": "P.O. BOX 40",
        "town": "NAHANT",
        "zip": "01908",
        "phone": "781-581-9623"
      }
    },
    {
      "type": "Feature",
      "geometry": {
        "type": "Point",
        "coordinates": [
          -70.1000928,
          41.2623671
        ]
      },
      "properties": {
        "Name": "Nantucket Housing Authority",
        "Family Housing (Ch.200)": "NULL",
        "Family Housing (Ch.705)": "12",
        "Elderly / Handicapped Housing (Ch.667)": "10",
        "Special Needs Housing (Ch.167/189)": "NULL",
        "Massachusetts Rental Voucher Program Housing": "NULL",
        "Alternative Housing Voucher Program Housing": "NULL",
        "address": "3 MANTA DR",
        "town": "NANTUCKET",
        "zip": "02554",
        "phone": "508-228-0296"
      }
    },
    {
      "type": "Feature",
      "geometry": {
        "type": "Point",
        "coordinates": [
          -71.3471565,
          42.2800771
        ]
      },
      "properties": {
        "Name": "Natick Housing Authority",
        "Family Housing (Ch.200)": "52",
        "Family Housing (Ch.705)": " 37",
        "Elderly / Handicapped Housing (Ch.667)": "325",
        "Special Needs Housing (Ch.167/189)": "8",
        "Massachusetts Rental Voucher Program Housing": "7",
        "Alternative Housing Voucher Program Housing": "NULL",
        "address": "4 COTTAGE STREET",
        "town": "NATICK",
        "zip": "01760",
        "phone": "508-653-2971"
      }
    },
    {
      "type": "Feature",
      "geometry": {
        "type": "Point",
        "coordinates": [
          -71.2347126,
          42.31265399999999
        ]
      },
      "properties": {
        "Name": "Needham Housing Authority",
        "Family Housing (Ch.200)": "80",
        "Family Housing (Ch.705)": " NULL",
        "Elderly / Handicapped Housing (Ch.667)": "152",
        "Special Needs Housing (Ch.167/189)": "8",
        "Massachusetts Rental Voucher Program Housing": "NULL",
        "Alternative Housing Voucher Program Housing": "NULL",
        "address": "28 ROBERT COOK DRIVE",
        "town": "NEEDHAM",
        "zip": "02192",
        "phone": "781-444-3011"
      }
    },
    {
      "type": "Feature",
      "geometry": {
        "type": "Point",
        "coordinates": [
          -70.927269,
          41.6364922
        ]
      },
      "properties": {
        "Name": "New Bedford Housing Authority",
        "Family Housing (Ch.200)": "330",
        "Family Housing (Ch.705)": "169",
        "Elderly / Handicapped Housing (Ch.667)": "389",
        "Special Needs Housing (Ch.167/189)": "16",
        "Massachusetts Rental Voucher Program Housing": "128",
        "Alternative Housing Voucher Program Housing": "25",
        "address": "P.O. BOX 2081",
        "town": "NEW BEDFORD",
        "zip": "02741",
        "phone": "508-997-4800"
      }
    },
    {
      "type": "Feature",
      "geometry": {
        "type": "Point",
        "coordinates": [
          -70.86901000000002,
          42.808571
        ]
      },
      "properties": {
        "Name": "Newburyport Housing Authority",
        "Family Housing (Ch.200)": "42",
        "Family Housing (Ch.705)": " NULL",
        "Elderly / Handicapped Housing (Ch.667)": "100",
        "Special Needs Housing (Ch.167/189)": "24",
        "Massachusetts Rental Voucher Program Housing": "10",
        "Alternative Housing Voucher Program Housing": "25",
        "address": "25 TEMPLE STREET",
        "town": "NEWBURYPORT",
        "zip": "01950",
        "phone": "508-465-7216"
      }
    },
    {
      "type": "Feature",
      "geometry": {
        "type": "Point",
        "coordinates": [
          -71.1435201,
          42.3583281
        ]
      },
      "properties": {
        "Name": "Newton Housing Authority",
        "Family Housing (Ch.200)": "NULL",
        "Family Housing (Ch.705)": "79",
        "Elderly / Handicapped Housing (Ch.667)": "136",
        "Special Needs Housing (Ch.167/189)": "17",
        "Massachusetts Rental Voucher Program Housing": "41",
        "Alternative Housing Voucher Program Housing": "NULL",
        "address": "82 LINCOLN STREET",
        "town": "NEWTON",
        "zip": "02160",
        "phone": "617-552-5501"
      }
    },
    {
      "type": "Feature",
      "geometry": {
        "type": "Point",
        "coordinates": [
          -71.3230549,
          42.1208961
        ]
      },
      "properties": {
        "Name": "Norfolk Housing Authority",
        "Family Housing (Ch.200)": "NULL",
        "Family Housing (Ch.705)": "20",
        "Elderly / Handicapped Housing (Ch.667)": "64",
        "Special Needs Housing (Ch.167/189)": "NULL",
        "Massachusetts Rental Voucher Program Housing": "NULL",
        "Alternative Housing Voucher Program Housing": "NULL",
        "address": "33 ROCKWOOD RD., BOX 293",
        "town": "NORFOLK",
        "zip": "02056",
        "phone": "508-528-4800"
      }
    },
    {
      "type": "Feature",
      "geometry": {
        "type": "Point",
        "coordinates": [
          -73.1087148,
          42.70091499999999
        ]
      },
      "properties": {
        "Name": "North Adams Housing Authority",
        "Family Housing (Ch.200)": "NULL",
        "Family Housing (Ch.705)": "NULL",
        "Elderly / Handicapped Housing (Ch.667)": "NULL",
        "Special Needs Housing (Ch.167/189)": "9",
        "Massachusetts Rental Voucher Program Housing": "9",
        "Alternative Housing Voucher Program Housing": "NULL",
        "address": "150 ASHLAND ST. BOX 51",
        "town": "NORTH ADAMS",
        "zip": "01247",
        "phone": "413-663-5379"
      }
    },
    {
      "type": "Feature",
      "geometry": {
        "type": "Point",
        "coordinates": [
          -72.6321789,
          42.31592
        ]
      },
      "properties": {
        "Name": "Northampton Housing Authority",
        "Family Housing (Ch.200)": "80",
        "Family Housing (Ch.705)": "12",
        "Elderly / Handicapped Housing (Ch.667)": "383",
        "Special Needs Housing (Ch.167/189)": "27",
        "Massachusetts Rental Voucher Program Housing": "15",
        "Alternative Housing Voucher Program Housing": "NULL",
        "address": "49 OLD SOUTH STREET",
        "town": "NORTHAMPTON",
        "zip": "01060",
        "phone": "413-584-4030  "
      }
    },
    {
      "type": "Feature",
      "geometry": {
        "type": "Point",
        "coordinates": [
          -71.6395113,
          42.3175399
        ]
      },
      "properties": {
        "Name": "Northborough Housing Authority",
        "Family Housing (Ch.200)": "NULL",
        "Family Housing (Ch.705)": "26",
        "Elderly / Handicapped Housing (Ch.667)": "104",
        "Special Needs Housing (Ch.167/189)": "8",
        "Massachusetts Rental Voucher Program Housing": "NULL",
        "Alternative Housing Voucher Program Housing": "NULL",
        "address": "26 VILLAGE DRIVE",
        "town": "NORTHBOROUGH",
        "zip": "01532",
        "phone": "508-393-2408"
      }
    },
    {
      "type": "Feature",
      "geometry": {
        "type": "Point",
        "coordinates": [
          -71.6538528,
          42.116316
        ]
      },
      "properties": {
        "Name": "Northbridge Housing Authority",
        "Family Housing (Ch.200)": "NULL",
        "Family Housing (Ch.705)": "NULL",
        "Elderly / Handicapped Housing (Ch.667)": "76",
        "Special Needs Housing (Ch.167/189)": "8",
        "Massachusetts Rental Voucher Program Housing": "4",
        "Alternative Housing Voucher Program Housing": "NULL",
        "address": "COLONIAL DRIVE",
        "town": "NORTHBRIDGE",
        "zip": "01588",
        "phone": "508-234-7736"
      }
    },
    {
      "type": "Feature",
      "geometry": {
        "type": "Point",
        "coordinates": [
          -71.1993897,
          41.9595365
        ]
      },
      "properties": {
        "Name": "Norton Housing Authority",
        "Family Housing (Ch.200)": "NULL",
        "Family Housing (Ch.705)": "14",
        "Elderly / Handicapped Housing (Ch.667)": "130",
        "Special Needs Housing (Ch.167/189)": "NULL",
        "Massachusetts Rental Voucher Program Housing": "3",
        "Alternative Housing Voucher Program Housing": "NULL",
        "address": "120 WEST MAIN STREET",
        "town": "NORTON",
        "zip": "02766",
        "phone": "508-285-3929"
      }
    },
    {
      "type": "Feature",
      "geometry": {
        "type": "Point",
        "coordinates": [
          -70.858633,
          42.1615428
        ]
      },
      "properties": {
        "Name": "Norwell Housing Authority",
        "Family Housing (Ch.200)": "NULL",
        "Family Housing (Ch.705)": "NULL",
        "Elderly / Handicapped Housing (Ch.667)": "80",
        "Special Needs Housing (Ch.167/189)": "16",
        "Massachusetts Rental Voucher Program Housing": "NULL",
        "Alternative Housing Voucher Program Housing": "NULL",
        "address": "399 WASHINGTON STREET",
        "town": "NORWELL",
        "zip": "02061",
        "phone": "781-659-7690"
      }
    },
    {
      "type": "Feature",
      "geometry": {
        "type": "Point",
        "coordinates": [
          -71.20496899999999,
          42.197798
        ]
      },
      "properties": {
        "Name": "Norwood Housing Authority",
        "Family Housing (Ch.200)": "75",
        "Family Housing (Ch.705)": " NULL",
        "Elderly / Handicapped Housing (Ch.667)": "293",
        "Special Needs Housing (Ch.167/189)": "NULL",
        "Massachusetts Rental Voucher Program Housing": "11",
        "Alternative Housing Voucher Program Housing": "NULL",
        "address": "40 WILLIAM SHYNE CIRCLE",
        "town": "NORWOOD",
        "zip": "02062",
        "phone": "781-762-8115"
      }
    },
    {
      "type": "Feature",
      "geometry": {
        "type": "Point",
        "coordinates": [
          -72.301506,
          42.584722
        ]
      },
      "properties": {
        "Name": "Orange Housing Authority",
        "Family Housing (Ch.200)": "NULL",
        "Family Housing (Ch.705)": "8",
        "Elderly / Handicapped Housing (Ch.667)": "56",
        "Special Needs Housing (Ch.167/189)": "NULL",
        "Massachusetts Rental Voucher Program Housing": "46",
        "Alternative Housing Voucher Program Housing": "NULL",
        "address": "200 EAST RIVER ST. BLDG #3",
        "town": "ORANGE",
        "zip": "01364",
        "phone": "978-544-6000"
      }
    },
    {
      "type": "Feature",
      "geometry": {
        "type": "Point",
        "coordinates": [
          -69.9679982,
          41.7929965
        ]
      },
      "properties": {
        "Name": "Orleans Housing Authority",
        "Family Housing (Ch.200)": "NULL",
        "Family Housing (Ch.705)": "11",
        "Elderly / Handicapped Housing (Ch.667)": "100",
        "Special Needs Housing (Ch.167/189)": "16",
        "Massachusetts Rental Voucher Program Housing": "19",
        "Alternative Housing Voucher Program Housing": "4",
        "address": "94 HOPKINS LANE",
        "town": "ORLEANS",
        "zip": "02653",
        "phone": "508-255-0064"
      }
    },
    {
      "type": "Feature",
      "geometry": {
        "type": "Point",
        "coordinates": [
          -71.866805,
          42.113249
        ]
      },
      "properties": {
        "Name": "Oxford Housing Authority",
        "Family Housing (Ch.200)": "NULL",
        "Family Housing (Ch.705)": "14",
        "Elderly / Handicapped Housing (Ch.667)": "166",
        "Special Needs Housing (Ch.167/189)": "8",
        "Massachusetts Rental Voucher Program Housing": "1",
        "Alternative Housing Voucher Program Housing": "NULL",
        "address": "23 WHEELOCK STREET",
        "town": "OXFORD",
        "zip": "01540",
        "phone": "508-987-5055"
      }
    },
    {
      "type": "Feature",
      "geometry": {
        "type": "Point",
        "coordinates": [
          -72.3439545,
          42.1695965
        ]
      },
      "properties": {
        "Name": "Palmer Housing Authority",
        "Family Housing (Ch.200)": "NULL",
        "Family Housing (Ch.705)": "NULL",
        "Elderly / Handicapped Housing (Ch.667)": "48",
        "Special Needs Housing (Ch.167/189)": "NULL",
        "Massachusetts Rental Voucher Program Housing": "1",
        "Alternative Housing Voucher Program Housing": "NULL",
        "address": "13 FLETCHER STREET",
        "town": "PALMER",
        "zip": "01069",
        "phone": "413-283-9311"
      }
    },
    {
      "type": "Feature",
      "geometry": {
        "type": "Point",
        "coordinates": [
          -70.9264479,
          42.531776
        ]
      },
      "properties": {
        "Name": "Peabody Housing Authority",
        "Family Housing (Ch.200)": "92",
        "Family Housing (Ch.705)": "45",
        "Elderly / Handicapped Housing (Ch.667)": "346",
        "Special Needs Housing (Ch.167/189)": "26",
        "Massachusetts Rental Voucher Program Housing": "150",
        "Alternative Housing Voucher Program Housing": "NULL",
        "address": "75-81 CENTRAL STREET",
        "town": "PEABODY",
        "zip": "01960",
        "phone": ""
      }
    },
    {
      "type": "Feature",
      "geometry": {
        "type": "Point",
        "coordinates": [
          -70.8084296,
          42.0659093
        ]
      },
      "properties": {
        "Name": "Pembroke Housing Authority",
        "Family Housing (Ch.200)": "NULL",
        "Family Housing (Ch.705)": "7",
        "Elderly / Handicapped Housing (Ch.667)": "116",
        "Special Needs Housing (Ch.167/189)": "16",
        "Massachusetts Rental Voucher Program Housing": "9",
        "Alternative Housing Voucher Program Housing": "NULL",
        "address": "KILCOMMONS DR",
        "town": "PEMBROKE",
        "zip": "02359",
        "phone": "781-293-3088  "
      }
    },
    {
      "type": "Feature",
      "geometry": {
        "type": "Point",
        "coordinates": [
          -71.57878,
          42.664095
        ]
      },
      "properties": {
        "Name": "Pepperell Housing Authority",
        "Family Housing (Ch.200)": "NULL",
        "Family Housing (Ch.705)": "7",
        "Elderly / Handicapped Housing (Ch.667)": "63",
        "Special Needs Housing (Ch.167/189)": "NULL",
        "Massachusetts Rental Voucher Program Housing": "2",
        "Alternative Housing Voucher Program Housing": "NULL",
        "address": "4 FOSTER ST",
        "town": "E. PEPPERELL",
        "zip": "01463",
        "phone": "978-433-9882"
      }
    },
    {
      "type": "Feature",
      "geometry": {
        "type": "Point",
        "coordinates": [
          -73.256948,
          42.451213
        ]
      },
      "properties": {
        "Name": "Pittsfield Housing Authority",
        "Family Housing (Ch.200)": "127",
        "Family Housing (Ch.705)": "43",
        "Elderly / Handicapped Housing (Ch.667)": "377",
        "Special Needs Housing (Ch.167/189)": "50",
        "Massachusetts Rental Voucher Program Housing": "6",
        "Alternative Housing Voucher Program Housing": "NULL",
        "address": "65 COLUMBUS AVE.",
        "town": "PITTSFIELD",
        "zip": "01201-",
        "phone": "413-443-5936"
      }
    },
    {
      "type": "Feature",
      "geometry": {
        "type": "Point",
        "coordinates": [
          -71.3190798,
          42.0079702
        ]
      },
      "properties": {
        "Name": "Plainville Housing Authority",
        "Family Housing (Ch.200)": "NULL",
        "Family Housing (Ch.705)": "NULL",
        "Elderly / Handicapped Housing (Ch.667)": "40",
        "Special Needs Housing (Ch.167/189)": "NULL",
        "Massachusetts Rental Voucher Program Housing": "NULL",
        "Alternative Housing Voucher Program Housing": "NULL",
        "address": "140 EAST BACON ST.",
        "town": "PLAINVILLE",
        "zip": "02762",
        "phone": "508-699-4212"
      }
    },
    {
      "type": "Feature",
      "geometry": {
        "type": "Point",
        "coordinates": [
          -70.66391999999999,
          41.95577
        ]
      },
      "properties": {
        "Name": "Plymouth Housing Authority",
        "Family Housing (Ch.200)": "40",
        "Family Housing (Ch.705)": " 5",
        "Elderly / Handicapped Housing (Ch.667)": "191",
        "Special Needs Housing (Ch.167/189)": "8",
        "Massachusetts Rental Voucher Program Housing": "NULL",
        "Alternative Housing Voucher Program Housing": "NULL",
        "address": "69 ALLERTON ST., BOX 3537",
        "town": "PLYMOUTH",
        "zip": "02361",
        "phone": "508-746-2105"
      }
    },
    {
      "type": "Feature",
      "geometry": {
        "type": "Point",
        "coordinates": [
          -70.18488599999999,
          42.058898
        ]
      },
      "properties": {
        "Name": "Provincetown Housing Authority",
        "Family Housing (Ch.200)": "NULL",
        "Family Housing (Ch.705)": "10",
        "Elderly / Handicapped Housing (Ch.667)": "24",
        "Special Needs Housing (Ch.167/189)": "NULL",
        "Massachusetts Rental Voucher Program Housing": "NULL",
        "Alternative Housing Voucher Program Housing": "10",
        "address": "44 HARRY KEMP WAY",
        "town": "PROVINCETOWN",
        "zip": "02657",
        "phone": "508-487-0434"
      }
    },
    {
      "type": "Feature",
      "geometry": {
        "type": "Point",
        "coordinates": [
          -71.0162019,
          42.2660698
        ]
      },
      "properties": {
        "Name": "Quincy Housing Authority",
        "Family Housing (Ch.200)": "400",
        "Family Housing (Ch.705)": "39",
        "Elderly / Handicapped Housing (Ch.667)": "470",
        "Special Needs Housing (Ch.167/189)": "29",
        "Massachusetts Rental Voucher Program Housing": "108",
        "Alternative Housing Voucher Program Housing": "NULL",
        "address": "80 CLAY STREET",
        "town": "QUNICY",
        "zip": "02170",
        "phone": "617-847-4350"
      }
    },
    {
      "type": "Feature",
      "geometry": {
        "type": "Point",
        "coordinates": [
          -71.03723029999999,
          42.1686235
        ]
      },
      "properties": {
        "Name": "Randolph Housing Authority",
        "Family Housing (Ch.200)": "NULL",
        "Family Housing (Ch.705)": "NULL",
        "Elderly / Handicapped Housing (Ch.667)": "236",
        "Special Needs Housing (Ch.167/189)": "8",
        "Massachusetts Rental Voucher Program Housing": "16",
        "Alternative Housing Voucher Program Housing": "NULL",
        "address": "ONE DECELLE DRIVE",
        "town": "RANDOLPH",
        "zip": "02368",
        "phone": "781-963-1990"
      }
    },
    {
      "type": "Feature",
      "geometry": {
        "type": "Point",
        "coordinates": [
          -71.05672,
          41.939093
        ]
      },
      "properties": {
        "Name": "Raynham Housing Authority",
        "Family Housing (Ch.200)": "NULL",
        "Family Housing (Ch.705)": "NULL",
        "Elderly / Handicapped Housing (Ch.667)": "62",
        "Special Needs Housing (Ch.167/189)": "NULL",
        "Massachusetts Rental Voucher Program Housing": "NULL",
        "Alternative Housing Voucher Program Housing": "NULL",
        "address": "75 MILL STREET",
        "town": "RAYNHAM",
        "zip": "02767",
        "phone": "508-824-9404"
      }
    },
    {
      "type": "Feature",
      "geometry": {
        "type": "Point",
        "coordinates": [
          -71.1151493,
          42.5246192
        ]
      },
      "properties": {
        "Name": "Reading Housing Authority",
        "Family Housing (Ch.200)": "NULL",
        "Family Housing (Ch.705)": "10",
        "Elderly / Handicapped Housing (Ch.667)": "80",
        "Special Needs Housing (Ch.167/189)": "8",
        "Massachusetts Rental Voucher Program Housing": "NULL",
        "Alternative Housing Voucher Program Housing": "NULL",
        "address": "22 FRANK D. TANNER DRIVE",
        "town": "READING",
        "zip": "01867",
        "phone": "781-944-6755"
      }
    },
    {
      "type": "Feature",
      "geometry": {
        "type": "Point",
        "coordinates": [
          -71.013627,
          42.415157
        ]
      },
      "properties": {
        "Name": "Revere Housing Authority",
        "Family Housing (Ch.200)": "286",
        "Family Housing (Ch.705)": "69",
        "Elderly / Handicapped Housing (Ch.667)": "351",
        "Special Needs Housing (Ch.167/189)": "NULL",
        "Massachusetts Rental Voucher Program Housing": "90",
        "Alternative Housing Voucher Program Housing": "100",
        "address": "70 COOLEDGE STREET",
        "town": "REVERE",
        "zip": "02151",
        "phone": "781-284-4394"
      }
    },
    {
      "type": "Feature",
      "geometry": {
        "type": "Point",
        "coordinates": [
          -70.9135956,
          42.1191407
        ]
      },
      "properties": {
        "Name": "Rockland Housing Authority",
        "Family Housing (Ch.200)": "NULL",
        "Family Housing (Ch.705)": "NULL",
        "Elderly / Handicapped Housing (Ch.667)": "42",
        "Special Needs Housing (Ch.167/189)": "NULL",
        "Massachusetts Rental Voucher Program Housing": "22",
        "Alternative Housing Voucher Program Housing": "NULL",
        "address": "8 STUDLEY COURT",
        "town": "ROCKAND",
        "zip": "02370",
        "phone": ""
      }
    },
    {
      "type": "Feature",
      "geometry": {
        "type": "Point",
        "coordinates": [
          -70.6252524,
          42.6542749
        ]
      },
      "properties": {
        "Name": "Rockport Housing Authority",
        "Family Housing (Ch.200)": "NULL",
        "Family Housing (Ch.705)": "24",
        "Elderly / Handicapped Housing (Ch.667)": "80",
        "Special Needs Housing (Ch.167/189)": "NULL",
        "Massachusetts Rental Voucher Program Housing": "NULL",
        "Alternative Housing Voucher Program Housing": "NULL",
        "address": "13 MILLBROOK PARK",
        "town": "ROCKPORT",
        "zip": "01966",
        "phone": "978-546-3181"
      }
    },
    {
      "type": "Feature",
      "geometry": {
        "type": "Point",
        "coordinates": [
          -70.8819111,
          42.7218554
        ]
      },
      "properties": {
        "Name": "Rowley Housing Authority",
        "Family Housing (Ch.200)": "NULL",
        "Family Housing (Ch.705)": "12",
        "Elderly / Handicapped Housing (Ch.667)": "42",
        "Special Needs Housing (Ch.167/189)": "NULL",
        "Massachusetts Rental Voucher Program Housing": "NULL",
        "Alternative Housing Voucher Program Housing": "NULL",
        "address": "PLANTATION DRIVE",
        "town": "ROWLEY",
        "zip": "01969",
        "phone": "978-948-2371"
      }
    },
    {
      "type": "Feature",
      "geometry": {
        "type": "Point",
        "coordinates": [
          -70.8912143,
          42.521116
        ]
      },
      "properties": {
        "Name": "Salem Housing Authority",
        "Family Housing (Ch.200)": "168",
        "Family Housing (Ch.705)": "42",
        "Elderly / Handicapped Housing (Ch.667)": "465",
        "Special Needs Housing (Ch.167/189)": "NULL",
        "Massachusetts Rental Voucher Program Housing": "103",
        "Alternative Housing Voucher Program Housing": "NULL",
        "address": "27 CHARTER STREET",
        "town": "SALEM",
        "zip": "01970",
        "phone": "978-744-4432"
      }
    },
    {
      "type": "Feature",
      "geometry": {
        "type": "Point",
        "coordinates": [
          -70.856126,
          42.841812
        ]
      },
      "properties": {
        "Name": "Salisbury Housing Authority",
        "Family Housing (Ch.200)": "NULL",
        "Family Housing (Ch.705)": "NULL",
        "Elderly / Handicapped Housing (Ch.667)": "80",
        "Special Needs Housing (Ch.167/189)": "NULL",
        "Massachusetts Rental Voucher Program Housing": "NULL",
        "Alternative Housing Voucher Program Housing": "NULL",
        "address": "23 BEACH ROAD",
        "town": "SALISBURY",
        "zip": "01950",
        "phone": "978-462-8600"
      }
    },
    {
      "type": "Feature",
      "geometry": {
        "type": "Point",
        "coordinates": [
          -70.4897921,
          41.70822150000001
        ]
      },
      "properties": {
        "Name": "Sandwich Housing Authority",
        "Family Housing (Ch.200)": "NULL",
        "Family Housing (Ch.705)": "13",
        "Elderly / Handicapped Housing (Ch.667)": "36",
        "Special Needs Housing (Ch.167/189)": "12",
        "Massachusetts Rental Voucher Program Housing": "2",
        "Alternative Housing Voucher Program Housing": "10",
        "address": "20 TOMS WAY",
        "town": "SANDWICH",
        "zip": "02565",
        "phone": "508-833-4979"
      }
    },
    {
      "type": "Feature",
      "geometry": {
        "type": "Point",
        "coordinates": [
          -71.0169739,
          42.4626207
        ]
      },
      "properties": {
        "Name": "Saugus Housing Authority",
        "Family Housing (Ch.200)": "NULL",
        "Family Housing (Ch.705)": "8",
        "Elderly / Handicapped Housing (Ch.667)": "205",
        "Special Needs Housing (Ch.167/189)": "8",
        "Massachusetts Rental Voucher Program Housing": "4",
        "Alternative Housing Voucher Program Housing": "NULL",
        "address": "19 TALBOT STREET",
        "town": "SAUGUS",
        "zip": "01906",
        "phone": "781-233-2116"
      }
    },
    {
      "type": "Feature",
      "geometry": {
        "type": "Point",
        "coordinates": [
          -70.7885884,
          42.22120779999999
        ]
      },
      "properties": {
        "Name": "Scituate Housing Authority",
        "Family Housing (Ch.200)": "NULL",
        "Family Housing (Ch.705)": "NULL",
        "Elderly / Handicapped Housing (Ch.667)": "158",
        "Special Needs Housing (Ch.167/189)": "7",
        "Massachusetts Rental Voucher Program Housing": "3",
        "Alternative Housing Voucher Program Housing": "NULL",
        "address": "791 Country Way",
        "town": "SCITUATE",
        "zip": "02066",
        "phone": "781-545-3375"
      }
    },
    {
      "type": "Feature",
      "geometry": {
        "type": "Point",
        "coordinates": [
          -71.334497,
          41.808871
        ]
      },
      "properties": {
        "Name": "Seekonk Housing Authority",
        "Family Housing (Ch.200)": "NULL",
        "Family Housing (Ch.705)": " 8",
        "Elderly / Handicapped Housing (Ch.667)": "72",
        "Special Needs Housing (Ch.167/189)": "NULL",
        "Massachusetts Rental Voucher Program Housing": "2",
        "Alternative Housing Voucher Program Housing": "2",
        "address": "25 CHAPPELL, SUITE 10",
        "town": "SEEKONK",
        "zip": "02771",
        "phone": "508-336-6067"
      }
    },
    {
      "type": "Feature",
      "geometry": {
        "type": "Point",
        "coordinates": [
          -71.1590346,
          42.136296
        ]
      },
      "properties": {
        "Name": "Sharon Housing Authority",
        "Family Housing (Ch.200)": "NULL",
        "Family Housing (Ch.705)": "6",
        "Elderly / Handicapped Housing (Ch.667)": "88",
        "Special Needs Housing (Ch.167/189)": "8",
        "Massachusetts Rental Voucher Program Housing": "2",
        "Alternative Housing Voucher Program Housing": "9",
        "address": "18 HIXON FARM ROAD",
        "town": "SHARON",
        "zip": "02067",
        "phone": "781-784-2733"
      }
    },
    {
      "type": "Feature",
      "geometry": {
        "type": "Point",
        "coordinates": [
          -72.5607395,
          42.6074895
        ]
      },
      "properties": {
        "Name": "Shelburne Housing Authority",
        "Family Housing (Ch.200)": "NULL",
        "Family Housing (Ch.705)": "NULL",
        "Elderly / Handicapped Housing (Ch.667)": "46",
        "Special Needs Housing (Ch.167/189)": "NULL",
        "Massachusetts Rental Voucher Program Housing": "NULL",
        "Alternative Housing Voucher Program Housing": "NULL",
        "address": "80 CANAL STREET, P.O. BOX 30",
        "town": "TURNER FALLS",
        "zip": "01376",
        "phone": "413-863-9530"
      }
    },
    {
      "type": "Feature",
      "geometry": {
        "type": "Point",
        "coordinates": [
          -71.7527431,
          42.2769802
        ]
      },
      "properties": {
        "Name": "Shrewsbury Housing Authority",
        "Family Housing (Ch.200)": "NULL",
        "Family Housing (Ch.705)": "17",
        "Elderly / Handicapped Housing (Ch.667)": "136",
        "Special Needs Housing (Ch.167/189)": "NULL",
        "Massachusetts Rental Voucher Program Housing": "NULL",
        "Alternative Housing Voucher Program Housing": "NULL",
        "address": "36 NO. QUINSINGAMOND AVE",
        "town": "SHREWSBURY",
        "zip": "01545",
        "phone": "508-757-0323"
      }
    },
    {
      "type": "Feature",
      "geometry": {
        "type": "Point",
        "coordinates": [
          -71.172548,
          41.738434
        ]
      },
      "properties": {
        "Name": "Somerset Housing Authority",
        "Family Housing (Ch.200)": "NULL",
        "Family Housing (Ch.705)": "NULL",
        "Elderly / Handicapped Housing (Ch.667)": "135",
        "Special Needs Housing (Ch.167/189)": "NULL",
        "Massachusetts Rental Voucher Program Housing": "NULL",
        "Alternative Housing Voucher Program Housing": "NULL",
        "address": "75 JOHN KENNEDY TERRACE",
        "town": "SOMERSET",
        "zip": "02726",
        "phone": "508-672-3348  "
      }
    },
    {
      "type": "Feature",
      "geometry": {
        "type": "Point",
        "coordinates": [
          -71.09254,
          42.395644
        ]
      },
      "properties": {
        "Name": "Somerville Housing Authority",
        "Family Housing (Ch.200)": "456",
        "Family Housing (Ch.705)": "3",
        "Elderly / Handicapped Housing (Ch.667)": "502",
        "Special Needs Housing (Ch.167/189)": "40",
        "Massachusetts Rental Voucher Program Housing": "12",
        "Alternative Housing Voucher Program Housing": "NULL",
        "address": "30 MEMORIAL ROAD",
        "town": "SOMERVILLE",
        "zip": "02145",
        "phone": "617-625-1152"
      }
    },
    {
      "type": "Feature",
      "geometry": {
        "type": "Point",
        "coordinates": [
          -72.5993823,
          42.2257282
        ]
      },
      "properties": {
        "Name": "South Hadley Housing Authority",
        "Family Housing (Ch.200)": "NULL",
        "Family Housing (Ch.705)": "12",
        "Elderly / Handicapped Housing (Ch.667)": "136",
        "Special Needs Housing (Ch.167/189)": "8",
        "Massachusetts Rental Voucher Program Housing": "10",
        "Alternative Housing Voucher Program Housing": "NULL",
        "address": "69 LATHROP STREET",
        "town": "SOUTH HADLEY",
        "zip": "01075",
        "phone": "413-532-3194"
      }
    },
    {
      "type": "Feature",
      "geometry": {
        "type": "Point",
        "coordinates": [
          -71.5189709,
          42.303489
        ]
      },
      "properties": {
        "Name": "Southborough Housing Authority",
        "Family Housing (Ch.200)": "NULL",
        "Family Housing (Ch.705)": "2",
        "Elderly / Handicapped Housing (Ch.667)": "56",
        "Special Needs Housing (Ch.167/189)": "8",
        "Massachusetts Rental Voucher Program Housing": "NULL",
        "Alternative Housing Voucher Program Housing": "NULL",
        "address": "49 BOSTON ROAD",
        "town": "SOUTHBOROUGH",
        "zip": "01772",
        "phone": "508-481-2166"
      }
    },
    {
      "type": "Feature",
      "geometry": {
        "type": "Point",
        "coordinates": [
          -72.02768379999999,
          42.0785431
        ]
      },
      "properties": {
        "Name": "Southbridge Housing Authority",
        "Family Housing (Ch.200)": "NULL",
        "Family Housing (Ch.705)": "8",
        "Elderly / Handicapped Housing (Ch.667)": "152",
        "Special Needs Housing (Ch.167/189)": "16",
        "Massachusetts Rental Voucher Program Housing": "79",
        "Alternative Housing Voucher Program Housing": "NULL",
        "address": "60 CHARLTON STREET",
        "town": "SOUTHBRIDGE",
        "zip": "01550",
        "phone": "508-765-5858"
      }
    },
    {
      "type": "Feature",
      "geometry": {
        "type": "Point",
        "coordinates": [
          -72.76823879999999,
          42.0542388
        ]
      },
      "properties": {
        "Name": "Southwick Housing Authority",
        "Family Housing (Ch.200)": "NULL",
        "Family Housing (Ch.705)": "6",
        "Elderly / Handicapped Housing (Ch.667)": "48",
        "Special Needs Housing (Ch.167/189)": "14",
        "Massachusetts Rental Voucher Program Housing": "NULL",
        "Alternative Housing Voucher Program Housing": "NULL",
        "address": "12 DEPOT STREET",
        "town": "SOUTHWICK",
        "zip": "01077",
        "phone": "413-569-3161"
      }
    },
    {
      "type": "Feature",
      "geometry": {
        "type": "Point",
        "coordinates": [
          -71.98880799999999,
          42.239069
        ]
      },
      "properties": {
        "Name": "Spencer Housing Authority",
        "Family Housing (Ch.200)": "NULL",
        "Family Housing (Ch.705)": " 8",
        "Elderly / Handicapped Housing (Ch.667)": "174",
        "Special Needs Housing (Ch.167/189)": "8",
        "Massachusetts Rental Voucher Program Housing": "18",
        "Alternative Housing Voucher Program Housing": "35",
        "address": "HOWE VILLAGE, P.O. BOX 486",
        "town": "SPENCER",
        "zip": "01562",
        "phone": "508-885-3904"
      }
    },
    {
      "type": "Feature",
      "geometry": {
        "type": "Point",
        "coordinates": [
          -72.5923651,
          42.11146160000001
        ]
      },
      "properties": {
        "Name": "Springfield Housing Authority",
        "Family Housing (Ch.200)": "532",
        "Family Housing (Ch.705)": "48",
        "Elderly / Handicapped Housing (Ch.667)": "429",
        "Special Needs Housing (Ch.167/189)": "43",
        "Massachusetts Rental Voucher Program Housing": "249",
        "Alternative Housing Voucher Program Housing": "NULL",
        "address": "25 SAAB COURT",
        "town": "SPRINGFIELD",
        "zip": "01101",
        "phone": "413-785-4517 or 413-785-4518"
      }
    },
    {
      "type": "Feature",
      "geometry": {
        "type": "Point",
        "coordinates": [
          -71.7576429,
          42.5291965
        ]
      },
      "properties": {
        "Name": "Sterling Housing Authority",
        "Family Housing (Ch.200)": "NULL",
        "Family Housing (Ch.705)": "NULL",
        "Elderly / Handicapped Housing (Ch.667)": "40",
        "Special Needs Housing (Ch.167/189)": "NULL",
        "Massachusetts Rental Voucher Program Housing": "NULL",
        "Alternative Housing Voucher Program Housing": "NULL",
        "address": "C/O Leominster Housing Authority 100 MAIN STREET",
        "town": "LEOMINSTER",
        "zip": "01453",
        "phone": "978-537-5300"
      }
    },
    {
      "type": "Feature",
      "geometry": {
        "type": "Point",
        "coordinates": [
          -73.3105235,
          42.28492019999999
        ]
      },
      "properties": {
        "Name": "Stockbridge Housing Authority",
        "Family Housing (Ch.200)": "NULL",
        "Family Housing (Ch.705)": "NULL",
        "Elderly / Handicapped Housing (Ch.667)": "53",
        "Special Needs Housing (Ch.167/189)": "8",
        "Massachusetts Rental Voucher Program Housing": "NULL",
        "Alternative Housing Voucher Program Housing": "NULL",
        "address": "5 PINE STREET",
        "town": "STOCKBRIDGE",
        "zip": "01262",
        "phone": "413-298-3222"
      }
    },
    {
      "type": "Feature",
      "geometry": {
        "type": "Point",
        "coordinates": [
          -71.0910911,
          42.4857012
        ]
      },
      "properties": {
        "Name": "Stoneham Housing Authority",
        "Family Housing (Ch.200)": "72",
        "Family Housing (Ch.705)": " NULL",
        "Elderly / Handicapped Housing (Ch.667)": "209",
        "Special Needs Housing (Ch.167/189)": "NULL",
        "Massachusetts Rental Voucher Program Housing": "NULL",
        "Alternative Housing Voucher Program Housing": "NULL",
        "address": "11 PARKER CHASE ROAD",
        "town": "STONEHAM",
        "zip": "02180",
        "phone": ""
      }
    },
    {
      "type": "Feature",
      "geometry": {
        "type": "Point",
        "coordinates": [
          -71.09965799999999,
          42.124922
        ]
      },
      "properties": {
        "Name": "Stoughton Housing Authority",
        "Family Housing (Ch.200)": "26",
        "Family Housing (Ch.705)": " 18",
        "Elderly / Handicapped Housing (Ch.667)": "186",
        "Special Needs Housing (Ch.167/189)": "8",
        "Massachusetts Rental Voucher Program Housing": "31",
        "Alternative Housing Voucher Program Housing": "NULL",
        "address": "4 CAPEN STREET",
        "town": "STOUGHTON",
        "zip": "02072",
        "phone": "781-344-6599  "
      }
    },
    {
      "type": "Feature",
      "geometry": {
        "type": "Point",
        "coordinates": [
          -71.4144297,
          42.3828253
        ]
      },
      "properties": {
        "Name": "Sudbury Housing Authority",
        "Family Housing (Ch.200)": "NULL",
        "Family Housing (Ch.705)": "20",
        "Elderly / Handicapped Housing (Ch.667)": "64",
        "Special Needs Housing (Ch.167/189)": "NULL",
        "Massachusetts Rental Voucher Program Housing": "NULL",
        "Alternative Housing Voucher Program Housing": "NULL",
        "address": "55 HUDSON ROAD",
        "town": "SUDBURY",
        "zip": "01776",
        "phone": "978-443-5112"
      }
    },
    {
      "type": "Feature",
      "geometry": {
        "type": "Point",
        "coordinates": [
          -71.72276099999999,
          42.175751
        ]
      },
      "properties": {
        "Name": "Sutton Housing Authority",
        "Family Housing (Ch.200)": "NULL",
        "Family Housing (Ch.705)": "NULL",
        "Elderly / Handicapped Housing (Ch.667)": "40",
        "Special Needs Housing (Ch.167/189)": "NULL",
        "Massachusetts Rental Voucher Program Housing": "NULL",
        "Alternative Housing Voucher Program Housing": "NULL",
        "address": "5 CHURCH STREET",
        "town": "WILKINSONVILLE",
        "zip": "01590",
        "phone": "508-865-3821"
      }
    },
    {
      "type": "Feature",
      "geometry": {
        "type": "Point",
        "coordinates": [
          -70.9240432,
          42.4717983
        ]
      },
      "properties": {
        "Name": "Swampscott Housing Authority",
        "Family Housing (Ch.200)": "36",
        "Family Housing (Ch.705)": " NULL",
        "Elderly / Handicapped Housing (Ch.667)": "84",
        "Special Needs Housing (Ch.167/189)": "8",
        "Massachusetts Rental Voucher Program Housing": "2",
        "Alternative Housing Voucher Program Housing": "NULL",
        "address": "6 DUNCAN TERRACE",
        "town": "SWAMPSCOTT",
        "zip": "01907",
        "phone": "781-593-5516"
      }
    },
    {
      "type": "Feature",
      "geometry": {
        "type": "Point",
        "coordinates": [
          -71.19332,
          41.747641
        ]
      },
      "properties": {
        "Name": "Swansea Housing Authority",
        "Family Housing (Ch.200)": "NULL",
        "Family Housing (Ch.705)": "NULL",
        "Elderly / Handicapped Housing (Ch.667)": "64",
        "Special Needs Housing (Ch.167/189)": "8",
        "Massachusetts Rental Voucher Program Housing": "NULL",
        "Alternative Housing Voucher Program Housing": "NULL",
        "address": "100 GARDNER NECK ROAD",
        "town": "SWANSEA",
        "zip": "02777",
        "phone": "508-679-5828"
      }
    },
    {
      "type": "Feature",
      "geometry": {
        "type": "Point",
        "coordinates": [
          -71.10230299999999,
          41.900414
        ]
      },
      "properties": {
        "Name": "Taunton Housing Authority",
        "Family Housing (Ch.200)": "140",
        "Family Housing (Ch.705)": "24",
        "Elderly / Handicapped Housing (Ch.667)": "276",
        "Special Needs Housing (Ch.167/189)": "8",
        "Massachusetts Rental Voucher Program Housing": "24",
        "Alternative Housing Voucher Program Housing": "NULL",
        "address": "30 OLNEY STREET",
        "town": "TAUNTON",
        "zip": "02780",
        "phone": "508-823-6308"
      }
    },
    {
      "type": "Feature",
      "geometry": {
        "type": "Point",
        "coordinates": [
          -72.0660879,
          42.615662
        ]
      },
      "properties": {
        "Name": "Templeton Housing Authority",
        "Family Housing (Ch.200)": "NULL",
        "Family Housing (Ch.705)": "8",
        "Elderly / Handicapped Housing (Ch.667)": "52",
        "Special Needs Housing (Ch.167/189)": "NULL",
        "Massachusetts Rental Voucher Program Housing": "NULL",
        "Alternative Housing Voucher Program Housing": "NULL",
        "address": "99 BRIDGE ST.",
        "town": "BALDWINVILLE",
        "zip": "01436",
        "phone": "978-939-2374"
      }
    },
    {
      "type": "Feature",
      "geometry": {
        "type": "Point",
        "coordinates": [
          -71.2101816,
          42.6017955
        ]
      },
      "properties": {
        "Name": "Tewksbury Housing Authority",
        "Family Housing (Ch.200)": "NULL",
        "Family Housing (Ch.705)": "19",
        "Elderly / Handicapped Housing (Ch.667)": "140",
        "Special Needs Housing (Ch.167/189)": "24",
        "Massachusetts Rental Voucher Program Housing": "NULL",
        "Alternative Housing Voucher Program Housing": "NULL",
        "address": "SAUNDERS CIRCLE",
        "town": "TEWKSBURY",
        "zip": "01876",
        "phone": "978-851-7392"
      }
    },
    {
      "type": "Feature",
      "geometry": {
        "type": "Point",
        "coordinates": [
          -70.959988,
          42.643123
        ]
      },
      "properties": {
        "Name": "Topsfield Housing Authority",
        "Family Housing (Ch.200)": "NULL",
        "Family Housing (Ch.705)": "NULL",
        "Elderly / Handicapped Housing (Ch.667)": "60",
        "Special Needs Housing (Ch.167/189)": "NULL",
        "Massachusetts Rental Voucher Program Housing": "NULL",
        "Alternative Housing Voucher Program Housing": "NULL",
        "address": "69 WASHINGTON STREET",
        "town": "TOPSFIELD",
        "zip": "01983",
        "phone": "978-887-8407"
      }
    },
    {
      "type": "Feature",
      "geometry": {
        "type": "Point",
        "coordinates": [
          -71.4230697,
          42.6738261
        ]
      },
      "properties": {
        "Name": "Tyngsborough Housing Authority",
        "Family Housing (Ch.200)": "NULL",
        "Family Housing (Ch.705)": "14",
        "Elderly / Handicapped Housing (Ch.667)": "94",
        "Special Needs Housing (Ch.167/189)": "8",
        "Massachusetts Rental Voucher Program Housing": "1",
        "Alternative Housing Voucher Program Housing": "NULL",
        "address": "198 MIDDLESEX RD. BRINLEY",
        "town": "TYNGSBOROUGH",
        "zip": "01879",
        "phone": "508-649-9941"
      }
    },
    {
      "type": "Feature",
      "geometry": {
        "type": "Point",
        "coordinates": [
          -71.6022583,
          42.1744878
        ]
      },
      "properties": {
        "Name": "Upton Housing Authority",
        "Family Housing (Ch.200)": "NULL",
        "Family Housing (Ch.705)": "NULL",
        "Elderly / Handicapped Housing (Ch.667)": "40",
        "Special Needs Housing (Ch.167/189)": "NULL",
        "Massachusetts Rental Voucher Program Housing": "7",
        "Alternative Housing Voucher Program Housing": "NULL",
        "address": "COACHROAD APTS. P.O. BOX 715",
        "town": "UPTON",
        "zip": "01568",
        "phone": ""
      }
    },
    {
      "type": "Feature",
      "geometry": {
        "type": "Point",
        "coordinates": [
          -71.6302532,
          42.07724289999999
        ]
      },
      "properties": {
        "Name": "Uxbridge Housing Authority",
        "Family Housing (Ch.200)": "22",
        "Family Housing (Ch.705)": " 12",
        "Elderly / Handicapped Housing (Ch.667)": "86",
        "Special Needs Housing (Ch.167/189)": "16",
        "Massachusetts Rental Voucher Program Housing": "NULL",
        "Alternative Housing Voucher Program Housing": "NULL",
        "address": "CALUMET COURT, BOX 391",
        "town": "UXBRIDGE",
        "zip": "01569",
        "phone": "508-278-3232  "
      }
    },
    {
      "type": "Feature",
      "geometry": {
        "type": "Point",
        "coordinates": [
          -71.785972,
          42.37897359999999
        ]
      },
      "properties": {
        "Name": "West Boylston Housing Authority",
        "Family Housing (Ch.200)": "NULL",
        "Family Housing (Ch.705)": "18",
        "Elderly / Handicapped Housing (Ch.667)": "36",
        "Special Needs Housing (Ch.167/189)": "8",
        "Massachusetts Rental Voucher Program Housing": "NULL",
        "Alternative Housing Voucher Program Housing": "NULL",
        "address": "87 MAPLE ST. ORCHARD KNOLL",
        "town": "WEST BOYLSTON",
        "zip": "01583",
        "phone": "508-835-6060"
      }
    },
    {
      "type": "Feature",
      "geometry": {
        "type": "Point",
        "coordinates": [
          -70.9973358,
          42.0299058
        ]
      },
      "properties": {
        "Name": "West Bridgewater Housing Authority",
        "Family Housing (Ch.200)": "NULL",
        "Family Housing (Ch.705)": "NULL",
        "Elderly / Handicapped Housing (Ch.667)": "48",
        "Special Needs Housing (Ch.167/189)": "NULL",
        "Massachusetts Rental Voucher Program Housing": "NULL",
        "Alternative Housing Voucher Program Housing": "NULL",
        "address": "7 ESTHER DRIVE",
        "town": "WEST BRIDGEWATER",
        "zip": "02379",
        "phone": "588-2781"
      }
    },
    {
      "type": "Feature",
      "geometry": {
        "type": "Point",
        "coordinates": [
          -72.0883798,
          42.2609012
        ]
      },
      "properties": {
        "Name": "West Brookfield Housing Authority",
        "Family Housing (Ch.200)": "NULL",
        "Family Housing (Ch.705)": "10",
        "Elderly / Handicapped Housing (Ch.667)": "36",
        "Special Needs Housing (Ch.167/189)": "8",
        "Massachusetts Rental Voucher Program Housing": "NULL",
        "Alternative Housing Voucher Program Housing": "NULL",
        "address": "29 EAST MAIN ST., BLDG #7",
        "town": "WEST BROOKFIELD",
        "zip": "01535-2936",
        "phone": "508-867-5891"
      }
    },
    {
      "type": "Feature",
      "geometry": {
        "type": "Point",
        "coordinates": [
          -70.97585959999999,
          42.8060142
        ]
      },
      "properties": {
        "Name": "West Newbury Housing Authority",
        "Family Housing (Ch.200)": "NULL",
        "Family Housing (Ch.705)": "12",
        "Elderly / Handicapped Housing (Ch.667)": "14",
        "Special Needs Housing (Ch.167/189)": "NULL",
        "Massachusetts Rental Voucher Program Housing": "NULL",
        "Alternative Housing Voucher Program Housing": "NULL",
        "address": "379 MAIN ST.",
        "town": "WEST NEWBURY",
        "zip": "01985",
        "phone": ""
      }
    },
    {
      "type": "Feature",
      "geometry": {
        "type": "Point",
        "coordinates": [
          -72.6544316,
          42.1073593
        ]
      },
      "properties": {
        "Name": "West Springfield Housing Authority",
        "Family Housing (Ch.200)": "90",
        "Family Housing (Ch.705)": " 9",
        "Elderly / Handicapped Housing (Ch.667)": "250",
        "Special Needs Housing (Ch.167/189)": "10",
        "Massachusetts Rental Voucher Program Housing": "7",
        "Alternative Housing Voucher Program Housing": "NULL",
        "address": "37 OXFORD PLACE",
        "town": "WEST SPRINGFIELD",
        "zip": "01089",
        "phone": "413-788-0988"
      }
    },
    {
      "type": "Feature",
      "geometry": {
        "type": "Point",
        "coordinates": [
          -71.0696213,
          42.5050315
        ]
      },
      "properties": {
        "Name": "Wakefield Housing Authority",
        "Family Housing (Ch.200)": "NULL",
        "Family Housing (Ch.705)": "8",
        "Elderly / Handicapped Housing (Ch.667)": "141",
        "Special Needs Housing (Ch.167/189)": "8",
        "Massachusetts Rental Voucher Program Housing": "14",
        "Alternative Housing Voucher Program Housing": "NULL",
        "address": "26 CRESCENT STREET",
        "town": "WAKEFIELD",
        "zip": "01880",
        "phone": "781-245-7328"
      }
    },
    {
      "type": "Feature",
      "geometry": {
        "type": "Point",
        "coordinates": [
          -71.2455708,
          42.1463707
        ]
      },
      "properties": {
        "Name": "Walpole Housing Authority",
        "Family Housing (Ch.200)": "NULL",
        "Family Housing (Ch.705)": "12",
        "Elderly / Handicapped Housing (Ch.667)": "118",
        "Special Needs Housing (Ch.167/189)": "8",
        "Massachusetts Rental Voucher Program Housing": "6",
        "Alternative Housing Voucher Program Housing": "NULL",
        "address": "8 DIAMOND POND TERRACE",
        "town": "WALPOLE",
        "zip": "02081",
        "phone": "508-668-7878"
      }
    },
    {
      "type": "Feature",
      "geometry": {
        "type": "Point",
        "coordinates": [
          -71.2410688,
          42.3795134
        ]
      },
      "properties": {
        "Name": "Waltham Housing Authority",
        "Family Housing (Ch.200)": "273",
        "Family Housing (Ch.705)": "22",
        "Elderly / Handicapped Housing (Ch.667)": "219",
        "Special Needs Housing (Ch.167/189)": "22",
        "Massachusetts Rental Voucher Program Housing": "NULL",
        "Alternative Housing Voucher Program Housing": "NULL",
        "address": "110 POND STREET",
        "town": "WALTHAM",
        "zip": "02154",
        "phone": "781-894-3357"
      }
    },
    {
      "type": "Feature",
      "geometry": {
        "type": "Point",
        "coordinates": [
          -72.24560000000001,
          42.255983
        ]
      },
      "properties": {
        "Name": "Ware Housing Authority",
        "Family Housing (Ch.200)": "NULL",
        "Family Housing (Ch.705)": "25",
        "Elderly / Handicapped Housing (Ch.667)": "86",
        "Special Needs Housing (Ch.167/189)": "NULL",
        "Massachusetts Rental Voucher Program Housing": "NULL",
        "Alternative Housing Voucher Program Housing": "NULL",
        "address": "20 VALLEY VIEW",
        "town": "WARE",
        "zip": "01082",
        "phone": "413-967-4477"
      }
    },
    {
      "type": "Feature",
      "geometry": {
        "type": "Point",
        "coordinates": [
          -70.7046565,
          41.7586768
        ]
      },
      "properties": {
        "Name": "Wareham Housing Authority",
        "Family Housing (Ch.200)": "NULL",
        "Family Housing (Ch.705)": "NULL",
        "Elderly / Handicapped Housing (Ch.667)": "104",
        "Special Needs Housing (Ch.167/189)": "NULL",
        "Massachusetts Rental Voucher Program Housing": "48",
        "Alternative Housing Voucher Program Housing": "NULL",
        "address": "57 SANDWICH ROAD",
        "town": "WAREHAM",
        "zip": "02571",
        "phone": "508-295-8031"
      }
    },
    {
      "type": "Feature",
      "geometry": {
        "type": "Point",
        "coordinates": [
          -72.2156517,
          42.2217737
        ]
      },
      "properties": {
        "Name": "Warren Housing Authority",
        "Family Housing (Ch.200)": "NULL",
        "Family Housing (Ch.705)": "10",
        "Elderly / Handicapped Housing (Ch.667)": "60",
        "Special Needs Housing (Ch.167/189)": "NULL",
        "Massachusetts Rental Voucher Program Housing": "14",
        "Alternative Housing Voucher Program Housing": "NULL",
        "address": "P.O. BOX 3021",
        "town": "WARREN",
        "zip": "01083",
        "phone": "413-436-7184"
      }
    },
    {
      "type": "Feature",
      "geometry": {
        "type": "Point",
        "coordinates": [
          -71.10311759999999,
          42.3581739
        ]
      },
      "properties": {
        "Name": "Watertown Housing Authority",
        "Family Housing (Ch.200)": "228",
        "Family Housing (Ch.705)": "12",
        "Elderly / Handicapped Housing (Ch.667)": "276",
        "Special Needs Housing (Ch.167/189)": "23",
        "Massachusetts Rental Voucher Program Housing": "18",
        "Alternative Housing Voucher Program Housing": "6",
        "address": "55 WAVERLY AVENUE",
        "town": "WATERTOWN",
        "zip": "02172",
        "phone": "617-923-3950"
      }
    },
    {
      "type": "Feature",
      "geometry": {
        "type": "Point",
        "coordinates": [
          -71.365537,
          42.320063
        ]
      },
      "properties": {
        "Name": "Wayland Housing Authority",
        "Family Housing (Ch.200)": "NULL",
        "Family Housing (Ch.705)": "NULL",
        "Elderly / Handicapped Housing (Ch.667)": "56",
        "Special Needs Housing (Ch.167/189)": "NULL",
        "Massachusetts Rental Voucher Program Housing": "NULL",
        "Alternative Housing Voucher Program Housing": "NULL",
        "address": "106 MAIN STREET",
        "town": "WAYLAND",
        "zip": "01778",
        "phone": "508-655-6310"
      }
    },
    {
      "type": "Feature",
      "geometry": {
        "type": "Point",
        "coordinates": [
          -71.8762854,
          42.0622678
        ]
      },
      "properties": {
        "Name": "Webster Housing Authority",
        "Family Housing (Ch.200)": "30",
        "Family Housing (Ch.705)": " NULL",
        "Elderly / Handicapped Housing (Ch.667)": "72",
        "Special Needs Housing (Ch.167/189)": "16",
        "Massachusetts Rental Voucher Program Housing": "3",
        "Alternative Housing Voucher Program Housing": "NULL",
        "address": "10 GOLDEN HEIGHTS",
        "town": "WEBSTER",
        "zip": "01570",
        "phone": "508-943-1624"
      }
    },
    {
      "type": "Feature",
      "geometry": {
        "type": "Point",
        "coordinates": [
          -71.24552899999999,
          42.3197818
        ]
      },
      "properties": {
        "Name": "Wellesley Housing Authority",
        "Family Housing (Ch.200)": "90",
        "Family Housing (Ch.705)": " 12",
        "Elderly / Handicapped Housing (Ch.667)": "133",
        "Special Needs Housing (Ch.167/189)": "NULL",
        "Massachusetts Rental Voucher Program Housing": "3",
        "Alternative Housing Voucher Program Housing": "NULL",
        "address": "109 BARTON ROAD",
        "town": "WELLESLEY",
        "zip": "02181",
        "phone": "781-235-0223"
      }
    },
    {
      "type": "Feature",
      "geometry": {
        "type": "Point",
        "coordinates": [
          -70.87601,
          42.6054182
        ]
      },
      "properties": {
        "Name": "Wenham Housing Authority",
        "Family Housing (Ch.200)": "NULL",
        "Family Housing (Ch.705)": "NULL",
        "Elderly / Handicapped Housing (Ch.667)": "84",
        "Special Needs Housing (Ch.167/189)": "8",
        "Massachusetts Rental Voucher Program Housing": "NULL",
        "Alternative Housing Voucher Program Housing": "NULL",
        "address": "LARCH LANE",
        "town": "WENHAM",
        "zip": "01984",
        "phone": "978-468-1532"
      }
    },
    {
      "type": "Feature",
      "geometry": {
        "type": "Point",
        "coordinates": [
          -71.6056148,
          42.279482
        ]
      },
      "properties": {
        "Name": "Westborough Housing Authority",
        "Family Housing (Ch.200)": "14",
        "Family Housing (Ch.705)": " 12",
        "Elderly / Handicapped Housing (Ch.667)": "76",
        "Special Needs Housing (Ch.167/189)": "8",
        "Massachusetts Rental Voucher Program Housing": "NULL",
        "Alternative Housing Voucher Program Housing": "NULL",
        "address": "2 ROGERS RD.",
        "town": "WESTBOROUGH",
        "zip": "01581",
        "phone": "508-366-1225"
      }
    },
    {
      "type": "Feature",
      "geometry": {
        "type": "Point",
        "coordinates": [
          -72.74843109999999,
          42.11429770000001
        ]
      },
      "properties": {
        "Name": "Westfield Housing Authority",
        "Family Housing (Ch.200)": "62",
        "Family Housing (Ch.705)": " 26",
        "Elderly / Handicapped Housing (Ch.667)": "339",
        "Special Needs Housing (Ch.167/189)": "14",
        "Massachusetts Rental Voucher Program Housing": "65",
        "Alternative Housing Voucher Program Housing": "10",
        "address": "P.O. BOX 99",
        "town": "WESTFIELD",
        "zip": "01086",
        "phone": "413-568-9283"
      }
    },
    {
      "type": "Feature",
      "geometry": {
        "type": "Point",
        "coordinates": [
          -71.40692539999999,
          42.5752135
        ]
      },
      "properties": {
        "Name": "Westford Housing Authority",
        "Family Housing (Ch.200)": "NULL",
        "Family Housing (Ch.705)": "6",
        "Elderly / Handicapped Housing (Ch.667)": "73",
        "Special Needs Housing (Ch.167/189)": "8",
        "Massachusetts Rental Voucher Program Housing": "NULL",
        "Alternative Housing Voucher Program Housing": "NULL",
        "address": "65 TADMUCK ROAD",
        "town": "WESTFORD",
        "zip": "01086",
        "phone": "978-568-9283"
      }
    },
    {
      "type": "Feature",
      "geometry": {
        "type": "Point",
        "coordinates": [
          -71.0798339,
          41.65837680000001
        ]
      },
      "properties": {
        "Name": "Westport Housing Authority",
        "Family Housing (Ch.200)": "NULL",
        "Family Housing (Ch.705)": "NULL",
        "Elderly / Handicapped Housing (Ch.667)": "48",
        "Special Needs Housing (Ch.167/189)": "NULL",
        "Massachusetts Rental Voucher Program Housing": "NULL",
        "Alternative Housing Voucher Program Housing": "NULL",
        "address": "666 STATE RD., P.O. BOX 456",
        "town": "WESTPORT",
        "zip": "02790",
        "phone": "508-675-2039"
      }
    },
    {
      "type": "Feature",
      "geometry": {
        "type": "Point",
        "coordinates": [
          -70.950228,
          42.2210139
        ]
      },
      "properties": {
        "Name": "Weymouth Housing Authority",
        "Family Housing (Ch.200)": "189",
        "Family Housing (Ch.705)": "NULL",
        "Elderly / Handicapped Housing (Ch.667)": "216",
        "Special Needs Housing (Ch.167/189)": "NULL",
        "Massachusetts Rental Voucher Program Housing": "89",
        "Alternative Housing Voucher Program Housing": "NULL",
        "address": "402 ESSEX STREET",
        "town": "WEYMOUTH",
        "zip": "02188",
        "phone": "617-331-2323"
      }
    },
    {
      "type": "Feature",
      "geometry": {
        "type": "Point",
        "coordinates": [
          -70.935599,
          42.0806564
        ]
      },
      "properties": {
        "Name": "Whitman Housing Authority",
        "Family Housing (Ch.200)": "NULL",
        "Family Housing (Ch.705)": "18",
        "Elderly / Handicapped Housing (Ch.667)": "164",
        "Special Needs Housing (Ch.167/189)": "NULL",
        "Massachusetts Rental Voucher Program Housing": "1",
        "Alternative Housing Voucher Program Housing": "4",
        "address": "P.O. BOX 334",
        "town": "WHITMAN",
        "zip": "02382",
        "phone": "781-447-6363"
      }
    },
    {
      "type": "Feature",
      "geometry": {
        "type": "Point",
        "coordinates": [
          -72.45738349999999,
          42.1121695
        ]
      },
      "properties": {
        "Name": "Wilbraham Housing Authority",
        "Family Housing (Ch.200)": "NULL",
        "Family Housing (Ch.705)": "9",
        "Elderly / Handicapped Housing (Ch.667)": "75",
        "Special Needs Housing (Ch.167/189)": "NULL",
        "Massachusetts Rental Voucher Program Housing": "NULL",
        "Alternative Housing Voucher Program Housing": "2",
        "address": "88 STONY HILL ROAD",
        "town": "WILBRAHAM",
        "zip": "01095",
        "phone": "413-543-1700"
      }
    },
    {
      "type": "Feature",
      "geometry": {
        "type": "Point",
        "coordinates": [
          -73.18565339999999,
          42.7019361
        ]
      },
      "properties": {
        "Name": "Williamstown Housing Authority",
        "Family Housing (Ch.200)": "NULL",
        "Family Housing (Ch.705)": "8",
        "Elderly / Handicapped Housing (Ch.667)": "30",
        "Special Needs Housing (Ch.167/189)": "8",
        "Massachusetts Rental Voucher Program Housing": "7",
        "Alternative Housing Voucher Program Housing": "NULL",
        "address": "35 ADAMS ROAD",
        "town": "WILLIAMSTOWN",
        "zip": "01267",
        "phone": "413-458-8282"
      }
    },
    {
      "type": "Feature",
      "geometry": {
        "type": "Point",
        "coordinates": [
          -71.1799557,
          42.5425765
        ]
      },
      "properties": {
        "Name": "Wilmington Housing Authority",
        "Family Housing (Ch.200)": "NULL",
        "Family Housing (Ch.705)": "13",
        "Elderly / Handicapped Housing (Ch.667)": "72",
        "Special Needs Housing (Ch.167/189)": "NULL",
        "Massachusetts Rental Voucher Program Housing": "NULL",
        "Alternative Housing Voucher Program Housing": "NULL",
        "address": "41 DEMING WAY",
        "town": "WILMINGTON",
        "zip": "01887",
        "phone": "978-658-8531"
      }
    },
    {
      "type": "Feature",
      "geometry": {
        "type": "Point",
        "coordinates": [
          -72.0452967,
          42.6914254
        ]
      },
      "properties": {
        "Name": "Winchendon Housing Authority",
        "Family Housing (Ch.200)": "NULL",
        "Family Housing (Ch.705)": "24",
        "Elderly / Handicapped Housing (Ch.667)": "87",
        "Special Needs Housing (Ch.167/189)": "8",
        "Massachusetts Rental Voucher Program Housing": "5",
        "Alternative Housing Voucher Program Housing": "NULL",
        "address": "108 IPSWICH DRIVE",
        "town": "WINCHENDON",
        "zip": "01475",
        "phone": "978-297-2280"
      }
    },
    {
      "type": "Feature",
      "geometry": {
        "type": "Point",
        "coordinates": [
          -71.13108919999999,
          42.4565458
        ]
      },
      "properties": {
        "Name": "Winchester Housing Authority",
        "Family Housing (Ch.200)": "NULL",
        "Family Housing (Ch.705)": "7",
        "Elderly / Handicapped Housing (Ch.667)": "112",
        "Special Needs Housing (Ch.167/189)": "NULL",
        "Massachusetts Rental Voucher Program Housing": "NULL",
        "Alternative Housing Voucher Program Housing": "NULL",
        "address": "13 WESTLEY STREET",
        "town": "WINCHESTER",
        "zip": "01890",
        "phone": "781-721-5718"
      }
    },
    {
      "type": "Feature",
      "geometry": {
        "type": "Point",
        "coordinates": [
          -70.9779345,
          42.3858246
        ]
      },
      "properties": {
        "Name": "Winthrop Housing Authority",
        "Family Housing (Ch.200)": "73",
        "Family Housing (Ch.705)": " 8",
        "Elderly / Handicapped Housing (Ch.667)": "348",
        "Special Needs Housing (Ch.167/189)": "8",
        "Massachusetts Rental Voucher Program Housing": "3",
        "Alternative Housing Voucher Program Housing": "NULL",
        "address": "9 GOLDEN DRIVE",
        "town": "WINTHROP",
        "zip": "02152",
        "phone": "617-846-7100"
      }
    },
    {
      "type": "Feature",
      "geometry": {
        "type": "Point",
        "coordinates": [
          -71.146428,
          42.48139
        ]
      },
      "properties": {
        "Name": "Woburn Housing Authority",
        "Family Housing (Ch.200)": "176",
        "Family Housing (Ch.705)": "NULL",
        "Elderly / Handicapped Housing (Ch.667)": "239",
        "Special Needs Housing (Ch.167/189)": "NULL",
        "Massachusetts Rental Voucher Program Housing": "NULL",
        "Alternative Housing Voucher Program Housing": "NULL",
        "address": "59 CAMPBELL STREET",
        "town": "WOBURN",
        "zip": "01801",
        "phone": "781-935-0818"
      }
    },
    {
      "type": "Feature",
      "geometry": {
        "type": "Point",
        "coordinates": [
          -71.795941,
          42.27126699999999
        ]
      },
      "properties": {
        "Name": "Worcester Housing Authority",
        "Family Housing (Ch.200)": "594",
        "Family Housing (Ch.705)": "40",
        "Elderly / Handicapped Housing (Ch.667)": "252",
        "Special Needs Housing (Ch.167/189)": "40",
        "Massachusetts Rental Voucher Program Housing": "298",
        "Alternative Housing Voucher Program Housing": "23",
        "address": "40 BELMONT STREET",
        "town": "WORCESTER",
        "zip": "01605",
        "phone": "508-798-4506"
      }
    },
    {
      "type": "Feature",
      "geometry": {
        "type": "Point",
        "coordinates": [
          -71.3468091,
          42.0484051
        ]
      },
      "properties": {
        "Name": "Wrentham Housing Authority",
        "Family Housing (Ch.200)": "NULL",
        "Family Housing (Ch.705)": "15",
        "Elderly / Handicapped Housing (Ch.667)": "66",
        "Special Needs Housing (Ch.167/189)": "NULL",
        "Massachusetts Rental Voucher Program Housing": "NULL",
        "Alternative Housing Voucher Program Housing": "NULL",
        "address": "P.O. BOX 312",
        "town": "WRENTHAM",
        "zip": "02093",
        "phone": "508-384-2054"
      }
    },
    {
      "type": "Feature",
      "geometry": {
        "type": "Point",
        "coordinates": [
          -70.20585100000001,
          41.6659319
        ]
      },
      "properties": {
        "Name": "Yarmouth Housing Authority",
        "Family Housing (Ch.200)": "NULL",
        "Family Housing (Ch.705)": "NULL",
        "Elderly / Handicapped Housing (Ch.667)": "40",
        "Special Needs Housing (Ch.167/189)": "8",
        "Massachusetts Rental Voucher Program Housing": "10",
        "Alternative Housing Voucher Program Housing": "NULL",
        "address": "LONG POND PLAZA",
        "town": "SO. YARMOUTH",
        "zip": "02644",
        "phone": "508-398-2920"
      }
    }
  ]
}